stop_id,stop_code,stop_name,stop_desc,stop_lat,stop_lon,zone_id,stop_url,location_type,parent_station,stop_timezone,wheelchair_boarding
ADELADA1,20,Adelaide at Ada NB - #20,,42.974289,-81.225234,,,,,,0
ADELADA2,21,Adelaide at Ada SB - #21,,42.97461,-81.225615,,,,,,0
ADELCEN1,22,Adelaide at Central  NB - #22,,42.994567,-81.234344,,,,,,0
ADELCEN2,23,Adelaide at Central  SB - #23,,42.99494,-81.234663,,,,,,0
ADELCHE1,24,Adelaide at Cheapside NB - #24,,43.00647,-81.240181,,,,,,0
ADELCHE2,25,Adelaide at Cheapside SB - #25,,43.005866,-81.240088,,,,,,0
ADELDUN1,27,Adelaide at Dundas NB - #27,,42.989214,-81.231686,,,,,,0
ADELDUN2,28,Adelaide at Dundas SB - #28,,42.988343,-81.231467,,,,,,0
ADELEDNA,29,Adelaide at Edna SB - #29,,42.971883,-81.224342,,,,,,0
ADELFAN2,32,Adelaide at Fanshawe Pk Rd SB - #32,,43.034328,-81.254625,,,,,,0
ADELGLEN,33,Adelaide at Glenora NB - #33,,43.029017,-81.251604,,,,,,0
ADELGRO1,34,Adelaide at Grosvenor NB - #34,,43.004337,-81.239172,,,,,,0
ADELGRO2,35,Adelaide at Grosvenor SB - #35,,43.004249,-81.239265,,,,,,0
ADELHAMI,36,Adelaide at Hamilton SB - #36,,42.982275,-81.228829,,,,,,0
ADELHIL1,37,Adelaide at Hill NB - #37,,42.979827,-81.227608,,,,,,0
ADELHIL2,38,Adelaide at Hill SB - #38,,42.980363,-81.227992,,,,,,0
ADELHUR1,39,Adelaide at Huron  NB - #39,,43.012606,-81.243443,,,,,,0
ADELHUR2,40,Adelaide at Huron SB - #40,,43.011146,-81.24272,,,,,,0
ADELHUR5,42,Opposite 1145 Adelaide NB - #42,,43.015827,-81.245032,,,,,,0
ADELKIP1,43,Adelaide north of Kipps Lane  NB - #43,,43.018099,-81.246148,,,,,,0
ADELKIP2,44,Adelaide north of Kipps Lane SB - #44,,43.01775,-81.24618,,,,,,0
ADELKIP6,47,Adelaide south of Kipps Lane 2 SB - #47,,43.014658,-81.244642,,,,,,0
ADELLEA1,48,Adelaide south of Leathorne St NB - #48,,42.960884,-81.216852,,,,,,0
ADELLEA2,49,Adelaide at Leathorne SB - #49,,42.961015,-81.217334,,,,,,0
ADELLEA3,50,Adelaide north of Leathorne 1 NB - #50,,42.962904,-81.220032,,,,,,0
ADELLEA5,52,Adelaide north of Leathorne 2 NB - #52,,42.963991,-81.220618,,,,,,0
ADELLISI,53,Adelaide at Little Simcoe NB - #53,,42.982516,-81.228761,,,,,,0
ADELLORN,54,Adelaide at Lorne NB - #54,,42.992328,-81.233229,,,,,,0
ADELMAPL,55,Adelaide at Mapledale SB - #55,,43.031429,-81.253063,,,,,,0
ADELMAUD,56,Adelaide at Maud NB - #56,,42.970708,-81.223681,,,,,,0
ADELMCMA,57,Adelaide at McMahen NB - #57,,42.997642,-81.23587,,,,,,0
ADELNEL1,58,Adelaide at Nelson NB - #58,,42.977567,-81.226683,,,,,,0
ADELNEL2,59,Adelaide at Nelson SB - #59,,42.977503,-81.226792,,,,,,0
ADELOSG1,60,Adelaide at SE Osgoode NB - #60,,42.93825,-81.209242,,,,,,0
ADELOSG2,61,Adelaide at NW Osgoode SB - #61,,42.941834,-81.213008,,,,,,0
ADELOSG3,62,Adelaide at NE Osgoode NB - #62,,42.942427,-81.213344,,,,,,0
ADELOSG4,63,Adelaide at SE Osgoode SB - #63,,42.937296,-81.20903,,,,,,0
ADELOSG5,64,Adelaide at SE Osgoode NS NB - #64,,42.937249,-81.208782,,,,,,0
ADELOSG6,65,Adelaide at SW Osgoode SB - #65,,42.939001,-81.2102,,,,,,0
ADELOSG7,66,Adelaide at Osgoode 3 NB - #66,,42.939237,-81.210169,,,,,,0
ADELOXF1,67,Adelaide at Oxford  NB - #67,,43.00054,-81.23728,,,,,,0
ADELOXF2,68,Adelaide at Oxford SB - #68,,43.000449,-81.237393,,,,,,0
ADELPAMA,69,Adelaide at Pall Mall SB - #69,,42.996487,-81.235428,,,,,,0
ADELPIC1,70,Adelaide at Piccadilly NB - #70,,42.99887,-81.236488,,,,,,0
ADELPIC2,71,Adelaide at Piccadilly SB - #71,,42.999014,-81.236686,,,,,,0
ADELPRIN,72,Adelaide at Princess SB - #72,,42.992506,-81.233465,,,,,,0
ADELQUEE,73,Adelaide at Queens SB - #73,,42.990215,-81.232309,,,,,,0
ADELREG1,74,Adelaide at Regent NB - #74,,43.010802,-81.242321,,,,,,0
ADELROSE,76,Adelaide at Rosedale SB - #76,,42.993791,-81.234088,,,,,,0
ADELSDAL,77,Adelaide at Southdale SB - #77,,42.943708,-81.214531,,,,,,0
ADELSJA1,78,Adelaide at St. James NB - #78,,43.002071,-81.238032,,,,,,0
ADELSJA2,79,Adelaide at St. James SB - #79,,43.002171,-81.238249,,,,,,0
ADELTENN,80,Adelaide at Tennant NB - #80,,43.030415,-81.252305,,,,,,0
ADELTERR,81,Adelaide at Terrace NB - #81,,42.972963,-81.224651,,,,,,0
ADELTHO1,82,Adelaide at Thompson NB - #82,,42.968564,-81.222737,,,,,,0
ADELTHO2,83,207 Adelaide - #83,,42.964134,-81.220869,,,,,,0
ADELTHO4,84,Adelaide at Thompson SB - #84,,42.967775,-81.222568,,,,,,0
ADELTHO6,85,155 Adelaide SB - #85,,42.965996,-81.221812,,,,,,0
ADELTHO8,86,247 Adelaide SB - #86,,42.962455,-81.219962,,,,,,0
ADELVIC1,87,Adelaide at Victoria NB - #87,,43.008164,-81.241064,,,,,,0
ADELVIC2,88,Adelaide at Victoria SB - #88,,43.008394,-81.241297,,,,,,0
ADELWIN1,89,Adelaide at Winderemere NB - #89,,43.023541,-81.248807,,,,,,0
ADELWIN2,90,Adelaide at Winderemere SB - #90,,43.023444,-81.249048,,,,,,0
ADMIBON1,93,Admiral at Bonaventure EB - #93,,43.003065,-81.154082,,,,,,0
ADMIBON2,94,Admiral at Bonaventure WB - #94,,43.003092,-81.154332,,,,,,0
ADMICAR1,95,Admiral at Carlyle EB - #95,,43.001932,-81.158102,,,,,,0
ADMICAR2,96,Admiral at Carlyle WB - #96,,43.00203,-81.158034,,,,,,0
ADMIKIP1,97,319 Admiral - #97,,42.999776,-81.161407,,,,,,0
ADMIKIP3,99,Admiral at Kipling EB - #99,,42.997513,-81.161871,,,,,,0
ADMISOVE,100,Admiral at Sovereign WB - #100,,43.004599,-81.148364,,,,,,0
ADMIVAU1,101,Admiral at Vaubois EB - #101,,43.002464,-81.156352,,,,,,0
ADMIVAU3,102,Admiral at Vaubois WB - #102,,43.002581,-81.15622,,,,,,0
ADMIVMP2,104,Admiral at Veterans Memorial Pkwy WB - #104,,43.003977,-81.150998,,,,,,0
ALDEARD1,114,Aldersbrook at Ardsley NB - #114,,43.001538,-81.314869,,,,,,0
ALDEARD2,115,Aldersbrook at Ardsley SB - #115,,43.001494,-81.314973,,,,,,0
ALDEAURO,116,Aldersbrook at Aurora SB - #116,,42.993378,-81.307808,,,,,,0
ALDEBARR,117,Aldersbrook at Barrydale SB - #117,,42.993947,-81.311052,,,,,,0
ALDEBLA2,119,Aldersbrook at Blackacres SB - #119,,43.011434,-81.321682,,,,,,0
ALDEBLA3,120,Aldersbrook north of Blackacres NB - #120,,43.012055,-81.321538,,,,,,0
ALDEBRAN,121,Aldersbrook at Brandy Lane NB - #121,,42.994024,-81.311112,,,,,,0
ALDEBRU1,122,Aldersbrook at Brunswick NB - #122,,42.999184,-81.315359,,,,,,0
ALDEBRU2,123,Aldersbrook at Brunswick SB - #123,,42.999267,-81.31545,,,,,,0
ALDEGAI1,126,Aldersbrook at Gainsborough NB - #126,,43.003132,-81.315752,,,,,,0
ALDEGAI2,127,Aldersbrook at Gainsborough SB - #127,,43.003719,-81.316164,,,,,,0
ALDEHAW1,128,Aldersbrook at Hawthorne NB - #128,,43.006761,-81.318598,,,,,,0
ALDEHAW2,129,Aldersbrook at Hawthorne SB - #129,,43.006554,-81.318479,,,,,,0
ALDELAW1,130,Aldersbrook at Lawson NB - #130,,42.994294,-81.312784,,,,,,0
ALDELAW2,131,Aldersbrook at Lawson SB - #131,,42.994256,-81.312906,,,,,,0
ALDERAN1,132,Aldersbrook at Ranchwood NB - #132,,43.004819,-81.317311,,,,,,0
ALDEREX1,134,Aldersbrook at Rexway NB - #134,,43.008857,-81.320511,,,,,,0
ALDEREX2,135,Aldersbrook at Rexway SB - #135,,43.008817,-81.320612,,,,,,0
ALDESOCT,136,Aldersbrook at Southcott Crt WB - #136,,42.99338,-81.307674,,,,,,0
ALDESPR1,137,Aldersbrook at Brandy Ln N Leg NB - #137,,42.996819,-81.314796,,,,,,0
ALDESPR2,138,Aldersbrook at Brandy Ln SB - #138,,42.996742,-81.314911,,,,,,0
ALUMHAL1,141,Alumni Hall EB - #141,,43.006041,-81.274944,,,,,,0
ALUMHAL2,142,Alumni Hall WB - #142,,43.006319,-81.275351,,,,,,0
AMBLGRA2,145,Ambleside at Grasmere Cres WB - #145,,43.016358,-81.285108,,,,,,0
AMBLHILL,147,Ambleside at Hillside WB - #147,,43.017645,-81.280695,,,,,,0
AMBLWHI1,149,Ambleside at Whitehaven WB - #149,,43.019798,-81.292995,,,,,,0
AMBLWHI2,150,286 Ambleside - #150,,43.021005,-81.294306,,,,,,0
ANDOCOM1,154,Andover at Commissioners NB - #154,,42.955725,-81.275336,,,,,,0
ANDOCOM2,155,Andover at Commissioners SB - #155,,42.955721,-81.275497,,,,,,0
ANDOELMG,156,Andover at Elmgrove Cr SB - #156,,42.951688,-81.275511,,,,,,0
ANDONOVE,158,Andover at Novello NB - #158,,42.952839,-81.275472,,,,,,0
ANDOVIG1,160,Andover at Village Green NB - #160,,42.953684,-81.275744,,,,,,0
ANDOVIG2,161,Andover at Village Green SB - #161,,42.95356,-81.275802,,,,,,0
ANDOVIS2,163,Andover at Viscount SB - #163,,42.948172,-81.275288,,,,,,0
ANDOVIS3,164,Andover north of Viscount  NB - #164,,42.948217,-81.275205,,,,,,0
ARGYMAL2,167,Argyle Mall NB - Stop 2 - #167,,43.003045,-81.173569,,,,,,0
ASHBMIL1,168,Ashbury at Millbank EB - #168,,42.937301,-81.202254,,,,,,0
ASHBMIL2,169,Ashbury at Millbank WB - #169,,42.937358,-81.202382,,,,,,0
ASHBSUR1,170,Ashbury at Surrey Cres NB - #170,,42.938413,-81.204312,,,,,,0
ASHBSUR2,171,Ashbury at Surrey Cres SB - #171,,42.938244,-81.2043,,,,,,0
BARKHURO,176,Barker at Huron SB - #176,,43.016179,-81.232,,,,,,0
BASEDUND,184,Base Line at Dundee Place EB - #184,,42.959601,-81.25735,,,,,,0
BASEFAI1,188,Base Line east Fairview Ave EB - #188,,42.962145,-81.225577,,,,,,0
BASEFAI2,189,Base Line west of Fairview Ave WB - #189,,42.962147,-81.226993,,,,,,0
BASEHIG1,192,Base Line at High EB - #192,,42.961362,-81.235476,,,,,,0
BASEMGR1,196,Base Line at McGregor EB - #196,,42.959013,-81.264059,,,,,,0
BASEWEL1,206,Base Line east of Wellington EB - #206,,42.961772,-81.230042,,,,,,0
BASEWEL3,208,Base Line west of Wellington EB - #208,,42.961636,-81.231553,,,,,,0
BASEWEL4,209,Base Line West of Fairview EB - #209,,42.962027,-81.226662,,,,,,0
BASEWEL6,210,Base Line west of Wellington WB - #210,,42.961786,-81.231501,,,,,,0
BASEWES1,211,Base Line east of West St  EB - #211,,42.958703,-81.267666,,,,,,0
BASEWES2,212,30 Base Line WB - #212,,42.959042,-81.264016,,,,,,0
BASEWES3,213,Base Line west of West St  EB - #213,,42.958329,-81.271553,,,,,,0
BASEWES4,214,90 Base Line WB - #214,,42.958764,-81.267069,,,,,,0
BASEWHA2,216,Base Line at Wharncliffe WB - #216,,42.959398,-81.260128,,,,,,0
BEACBAS1,222,Beachwood at Base Line NB - #222,,42.957793,-81.275356,,,,,,0
BEACBAS2,223,Beachwood at Base Line SB - #223,,42.957706,-81.275411,,,,,,0
BEAVBLYT,224,Beaverbrook at Blythwood WB - #224,,42.989057,-81.298029,,,,,,0
BEAVHORI,225,Beaverbrook at Horizon WB - #225,,42.990733,-81.292312,,,,,,0
BEAVOXF1,226,Beaverbrook at Oxford NB - #226,,42.987086,-81.281034,,,,,,0
BEAVOXF2,227,Beaverbrook at Oxford SB - #227,,42.986911,-81.281009,,,,,,0
BEAVWOND,228,Beaverbrook at Wonderland WB - #228,,42.990017,-81.294785,,,,,,0
BECKLANC,229,Beckworth at Lancaster EB - #229,,43.02153,-81.199744,,,,,,0
BECKLANG,230,Beckworth at Langton EB - #230,,43.022025,-81.197964,,,,,,0
BECKSORR,231,Beckworth at Sorrel EB - #231,,43.021237,-81.193988,,,,,,0
BECKTOUK,232,Beckworth at Toukay EB - #232,,43.02084,-81.202245,,,,,,0
BECKTUDO,233,Beckworth at Tudor EB - #233,,43.02187,-81.196218,,,,,,0
BELMHILL,234,Belmont at Hillsborough EB - #234,,42.947155,-81.261834,,,,,,0
BELMNODA,235,Belmont at Notre Dame EB - #235,,42.946298,-81.26779,,,,,,0
BELMSLAW,236,Belmont at St Lawrence EB - #236,,42.946828,-81.264574,,,,,,0
BELMWHAR,237,Belmont at Wharncliffe EB - #237,,42.947323,-81.259069,,,,,,0
BERKGAR1,240,Berkshire at Gardenwood NB - #240,,42.962686,-81.285332,,,,,,0
BERKGAR4,241,Berkshire north of Gardenwood SB - #241,,42.962481,-81.286307,,,,,,0
BERKROB1,242,Berkshire at Robin NB - #242,,42.960797,-81.282859,,,,,,0
BERKROB2,243,Berkshire at Robin SB - #243,,42.961183,-81.283003,,,,,,0
BERKSPR1,244,Berkshire at Springbank NB - #244,,42.964044,-81.290657,,,,,,0
BERKSPR2,245,Berkshire at Springbank SB - #245,,42.963902,-81.290635,,,,,,0
BERKTOP1,246,Berkshire at Topping Lane NB - #246,,42.959633,-81.283813,,,,,,0
BERKTOP2,247,Berkshire at Topping Lane SB - #247,,42.959659,-81.283837,,,,,,0
BES1EXET,250,Bessemer at Exeter NB - #250,,42.927041,-81.212835,,,,,,0
BESSBES3,252,Bessemer at Bessemer Crt 2 NB - #252,,42.932033,-81.211985,,,,,,0
BESSHAR1,253,Bessemer at Hargrieve NB - #253,,42.929243,-81.212852,,,,,,0
BKWTADE1,255,Blackwater east of Adelaide EB - #255,,43.043968,-81.258899,,,,,,0
BLACEDG2,262,Blackacres at Edgehill Cres 1 WB - #262,,43.011095,-81.311339,,,,,,0
BLACEDG4,263,Blackacres at Edgehill Cres WB - #263,,43.012802,-81.315024,,,,,,0
BLACHOM2,265,Blackacres at Hawthorne NB - #265,,43.009442,-81.310468,,,,,,0
BLACWOND,267,Blackacres at Wonderland WB - #267,,43.009924,-81.306375,,,,,,0
BLACWWA2,269,Blackacres at Winding Way WB - #269,,43.012349,-81.319429,,,,,,0
BLUESUN2,274,Bluebell  at Sunningdale SB - #274,,43.042123,-81.272748,,,,,,0
BOLEBASE,275,Boler at Byron Baseline NB - #275,,42.953654,-81.331251,,,,,,0
BOLECOM1,276,Boler south of Commissioners NB - #276,,42.958331,-81.332375,,,,,,0
BOLECOM3,277,Boler north of Commissioners  NB - #277,,42.960072,-81.332683,,,,,,0
BOLEGLEN,278,Boler at Glenrose NB - #278,,42.956735,-81.332025,,,,,,0
BOLEGRIF,279,Boler at Griffith NB - #279,,42.945802,-81.329332,,,,,,0
BOLEWAYN,280,Boler at Wayne Road NB - #280,,42.949368,-81.330188,,,,,,0
BONADUND,281,Bonaventure at Dundas SB - #281,,43.008767,-81.158322,,,,,,0
BONAMORE,283,Bonaventure at Moreau Cr  SB - #283,,43.004695,-81.154708,,,,,,0
BONANAPO,284,Bonaventure at Napoleon Cr SB - #284,,43.000429,-81.154082,,,,,,0
BONASIMP,285,Bonaventure at Simpson Cr SB - #285,,43.007415,-81.156086,,,,,,0
BONATRA2,287,Bonaventure at Trafalgar SB - #287,,42.997744,-81.153783,,,,,,0
BOWBANC,290,Bow at Bancroft EB - #290,,42.991759,-81.16023,,,,,,0
BRADADE1,291,Bradley between Willow & Adelaide  EB - #291,,42.935783,-81.213495,,,,,,0
BRADADE2,292,Bradley at Adelaide  WB - #292,,42.935976,-81.209553,,,,,,0
BRADAGN2,293,Bradley at Willow 1 WB - #293,,42.935252,-81.216461,,,,,,0
BRADDEAR,294,Bradley at Dearness WB - #294,,42.93475,-81.221688,,,,,,0
BRADERNE,295,Bradley at Ernest Ave EB - #295,,42.93429,-81.237428,,,,,,0
BRADJALN,296,Bradley at Jalna EB - #296,,42.934325,-81.240431,,,,,,0
BRADWEL3,297,Bradley east of Wellington Rd EB - #297,,42.934543,-81.222187,,,,,,0
BRADWIL1,298,Bradley at Willow 1 EB - #298,,42.934873,-81.218812,,,,,,0
BRIAHURO,300,Briarhill at Huron SB - #300,,43.016976,-81.226235,,,,,,0
BRIAMEL2,302,Briarhill north of Melsandra SB - #302,,43.02038,-81.227859,,,,,,0
BRUCMARL,303,Bruce at Marley Place EB - #303,,42.972934,-81.251357,,,,,,0
BRUCWORT,304,Bruce at Wortley EB - #304,,42.972448,-81.253366,,,,,,0
BRYDHAL1,305,Brydges at Hale EB - #305,,42.990508,-81.195478,,,,,,0
BRYDHAL2,306,Brydges at Hale WB - #306,,42.990779,-81.194754,,,,,,0
BRYDHIG2,308,Brydges at Highbury WB - #308,,42.989103,-81.199763,,,,,,0
BRYDHIG3,309,Brydges at Highbury  EB - #309,,42.989035,-81.19957,,,,,,0
BURLCAIR,312,Burlington at Cairn EB - #312,,42.963624,-81.203471,,,,,,0
BURLPOMI,313,Burlington at Pond Mills EB - #313,,42.963336,-81.201285,,,,,,0
BYBABELV,314,Byron Baseline at Belvedere EB - #314,,42.952538,-81.33747,,,,,,0
BYBABYRO,316,Byron Baseline at Byron Blvd EB - #316,,42.952929,-81.333022,,,,,,0
BYBAGRIF,318,Byron Baseline at Griffith EB - #318,,42.95237,-81.339405,,,,,,0
CAPUBLSM,321,Capulet Lane at Blacksmith SB - #321,,42.987537,-81.299896,,,,,,0
CAPUCAPW,322,Capulet Lane at Capulet Walk SB - #322,,42.985177,-81.298375,,,,,,0
CARFCAR1,323,Carfrae at Carfrae NB - #323,,42.974211,-81.245171,,,,,,0
CARFCAR2,324,Carfrae & Carfrae St SB - #324,,42.974234,-81.245255,,,,,,0
CARFGRAN,325,Carfrae at Grand NB - #325,,42.971887,-81.244635,,,,,,0
CARFWOOD,326,Carfrae at Woodland Pl SB - #326,,42.972115,-81.244794,,,,,,0
CARLCAPR,327,Carlyle at Caprice Cres NB - #327,,43.003383,-81.1596,,,,,,0
CARLSPE1,328,Carlyle at Speight Cres North NB - #328,,43.006153,-81.161129,,,,,,0
CARLSPE3,329,Carlyle at Speight Cres South NB - #329,,43.005159,-81.16109,,,,,,0
CARLTIFF,330,Carlyle at Tiffany  NB - #330,,43.007857,-81.161588,,,,,,0
CATHBASE,331,Cathcart at Baseline NB - #331,,42.960272,-81.253127,,,,,,0
CATHDEVO,334,Cathcart at Devonshire NB - #334,,42.963072,-81.253339,,,,,,0
CATHELMW,336,Cathcart at Elmwood NB - #336,,42.970601,-81.254468,,,,,,0
CATHLANG,339,Cathcart at Langarth NB - #339,,42.965372,-81.253657,,,,,,0
CATHTECU,340,Cathcart at Tecumseh NB - #340,,42.967892,-81.254039,,,,,,0
CHAMSAND,341,Chambers at Sandybrook NB - #341,,43.039748,-81.270162,,,,,,0
CHAMSKYL,342,Chambers at Skyline NB - #342,,43.041719,-81.271282,,,,,,0
CHAMWHIS,343,Chambers at Whisker SB - #343,,43.038329,-81.270524,,,,,,0
CHEAADE1,344,Cheapside at Adelaide EB - #344,,43.006237,-81.239049,,,,,,0
CHEAADE2,345,Cheapside west of Adelaide WB - #345,,43.006102,-81.240697,,,,,,0
CHEAADE4,346,Cheapside east of Adelaide WB - #346,,43.006567,-81.23826,,,,,,0
CHEABARK,348,Cheapside at Barker EB - #348,,43.009427,-81.22825,,,,,,0
CHEABOU1,349,Cheapside at Boullee EB - #349,,43.010127,-81.225877,,,,,,0
CHEABOU2,350,Cheapside at Boullee WB - #350,,43.010344,-81.225389,,,,,,0
CHEABRA1,351,Cheapside at Brampton EB - #351,,43.007764,-81.233993,,,,,,0
CHEACOL1,352,Cheapside at Colborne EB - #352,,43.003757,-81.248777,,,,,,0
CHEACOL2,353,Cheapside at Colborne WB - #353,,43.003974,-81.248369,,,,,,0
CHEAGAM1,354,Cheapside at Gammage EB - #354,,43.008605,-81.231088,,,,,,0
CHEAGAM2,355,Cheapside at Gammage WB - #355,,43.008478,-81.23179,,,,,,0
CHEAMAI1,357,Cheapside at Maitland EB - #357,,43.004728,-81.24527,,,,,,0
CHEAMAI2,358,Cheapside at Maitland WB - #358,,43.004599,-81.246139,,,,,,0
CHEAMCNA,359,Cheapside at McNay EB - #359,,43.011324,-81.221707,,,,,,0
CHEARICH,360,Cheapside at Richmond WB - #360,,43.001983,-81.255573,,,,,,0
CHEASTER,361,Cheapside at Sterling WB - #361,,43.009301,-81.228968,,,,,,0
CHEAWAT1,364,Cheapside at Waterloo EB - #364,,43.002959,-81.251627,,,,,,0
CHEAWAT2,365,Cheapside at Waterloo WB - #365,,43.003196,-81.251129,,,,,,0
CHEAWIL1,368,Cheapside at William EB - #368,,43.005516,-81.24244,,,,,,0
CHEAWIL2,369,Cheapside at William WB - #369,,43.005588,-81.242502,,,,,,0
CHERCHBL,371,Cherryhill at Cherryhill Blvd WB - #371,,42.99116,-81.277868,,,,,,0
CHERCHC1,372,Cherryhill at Cherryhill Blvd NB - #372,,42.990935,-81.277884,,,,,,0
CHERCHC3,374,Cherryhill east of Cherryhill Cir EB - #374,,42.99177,-81.275942,,,,,,0
CHERCHC4,375,160 Cherryhill Place - #375,,42.991975,-81.275413,,,,,,0
CHEROXF1,378,Cherryhill north of Oxford 1 NB - #378,,42.989354,-81.276458,,,,,,0
CHEROXF2,379,Cherryhill at Oxford SB - #379,,42.989064,-81.276488,,,,,,0
CHERPLA1,381,Cherryhill at Platts Lane EB - #381,,42.99171,-81.273521,,,,,,0
CHERPLA2,382,Cherryhill at Platts Lane WB - #382,,42.991829,-81.273316,,,,,,0
CHIDCHID,384,Chiddington Ave at Chiddington Gt SB - #384,,42.952254,-81.233581,,,,,,0
CHIDHUN1,385,Chiddington at Huntingdon EB - #385,,42.953491,-81.237051,,,,,,0
CHIDHUN2,386,Chiddington at Huntingdon WB - #386,,42.953562,-81.235669,,,,,,0
CHIDUPQ2,389,Chiddington at Upper Queens WB - #389,,42.953264,-81.239981,,,,,,0
CHIDWILK,390,Chiddington at Wilkins NB - #390,,42.952296,-81.233496,,,,,,0
CHIPAPP2,391,Chippewa Elementary School - #391,,43.028257,-81.197729,,,,,,0
CHIPAPP4,392,Chippewa at Appache WB - #392,,43.026565,-81.202334,,,,,,0
CHIPTREV,393,Chippewa at Trevor WB - #393,,43.02762,-81.199787,,,,,,0
CLARAVA1,394,Clarke at Avalon NB - #394,,43.006881,-81.176782,,,,,,0
CLARCHA1,395,Clarke at Charterhouse NB - #395,,42.99043,-81.168805,,,,,,0
CLARCHA2,396,Clarke at Charterhouse SB - #396,,42.988142,-81.167747,,,,,,0
CLARCHA3,397,Marconi Club NB - #397,,42.987716,-81.16735,,,,,,0
CLARCHU1,398,Clarke at Churchill NB - #398,,43.00102,-81.173848,,,,,,0
CLARCHU2,399,Clarke at Churchill  SB - #399,,43.000697,-81.173868,,,,,,0
CLARCULV,400,Clarke at Culver SB - #400,,43.011313,-81.179156,,,,,,0
CLARDUN1,402,Clarke at Dundas NB - #402,,43.005365,-81.176055,,,,,,0
CLARDUN2,403,Clarke at Dundas SB - #403,,43.004938,-81.176017,,,,,,0
CLARFIS1,404,Clarke at Firestone NB - #404,,42.983111,-81.164911,,,,,,0
CLARFIS2,405,Clarke at Firestone SB - #405,,42.98371,-81.165357,,,,,,0
CLARGORE,406,Clarke at Gore NB - #406,,42.981642,-81.164152,,,,,,0
CLARHERB,407,Clarke at Herbert SB - #407,,43.009939,-81.178489,,,,,,0
CLARPACI,409,Clarke at Pacific NB - #409,,43.011092,-81.178909,,,,,,0
CLARPKH1,410,Clarke at Parkhurst NB - #410,,43.008731,-81.177735,,,,,,0
CLARPKH2,411,Clarke at Parkhurst SB - #411,,43.009135,-81.178086,,,,,,0
CLARROY1,412,Clarke at Royal  NB - #412,,42.996122,-81.171725,,,,,,0
CLARROY2,413,Clarke at Royal SB - #413,,42.996934,-81.172318,,,,,,0
CLARROY3,414,Sunrise Baptist Church - #414,,42.997734,-81.172518,,,,,,0
CLARSUD2,416,Clarke at Sudbury SB - #416,,42.994076,-81.17083,,,,,,0
CLARTRA1,417,Clarke north of Trafalgar NB - #417,,42.993016,-81.170087,,,,,,0
CLARTRA2,418,Clarke north of Trafalgar SB - #418,,42.993134,-81.170342,,,,,,0
CLARTRA4,419,Clarke south of Trafalgar SB - #419,,42.990993,-81.16926,,,,,,0
CLARWAV1,420,Clarke Road Secondary School - #420,,42.999051,-81.172879,,,,,,0
CLARWAV2,421,Clarke at Wavell SB - #421,,42.998256,-81.172885,,,,,,0
COLBCEN1,432,Colborne at Central NB - #432,,42.992777,-81.242853,,,,,,0
COLBCEN2,433,Colborne at Central SB - #433,,42.992253,-81.242789,,,,,,0
COLBDUFF,434,Colborne at Dufferin SB - #434,,42.989251,-81.241198,,,,,,0
COLBHILL,435,Colborne at Hill NB - #435,,42.977897,-81.235331,,,,,,0
COLBHOPE,436,Colborne at Hope SB - #436,,42.990934,-81.242065,,,,,,0
COLBOXFD,438,Colborne at Oxford SB - #438,,42.997293,-81.245316,,,,,,0
COLBPAM1,439,Colborne at Pall Mall NB - #439,,42.994937,-81.243983,,,,,,0
COLBPAM2,440,Colborne at Pall Mall SB - #440,,42.994842,-81.244053,,,,,,0
COLBPIC2,442,Colborne at Piccadilly  SB - #442,,42.99633,-81.244841,,,,,,0
COLBPRIN,443,Colborne at Princess NB - #443,,42.990303,-81.241638,,,,,,0
COMMADE1,445,Commissioners at Adelaide EB - #445,,42.959153,-81.2149,,,,,,0
COMMADE2,446,Commissioners east of Adelaide WB - #446,,42.959517,-81.214417,,,,,,0
COMMADE4,447,Commissioners west of Adelaide WB - #447,,42.958643,-81.220485,,,,,,0
COMMBOL2,448,Commissioners at Boler WB - #448,,42.959479,-81.331786,,,,,,0
COMMDEV1,449,Commissioners at Deveron EB - #449,,42.962324,-81.194459,,,,,,0
COMMDEV2,450,Commissioners west of Deveron 1 WB - #450,,42.962337,-81.195987,,,,,,0
COMMDEV4,452,Commissioners west of Deveron 2 WB - #452,,42.962191,-81.1969,,,,,,0
COMMDEV6,453,Commissioners east of Deveron WB - #453,,42.962645,-81.193643,,,,,,0
COMMFRO1,454,Commissioners at Frontenac EB - #454,,42.960312,-81.20809,,,,,,0
COMMFRO2,455,Commissioners at Frontenac WB - #455,,42.960331,-81.209188,,,,,,0
COMMGRD1,456,Commissioners at Gordon EB - #456,,42.956583,-81.264504,,,,,,0
COMMGRD2,457,Commissioners at Gordon WB - #457,,42.956814,-81.263811,,,,,,0
COMMHAM2,458,Commissioners east of Halls Mills WB - #458,,42.960372,-81.334565,,,,,,0
COMMHUXL,461,Commissioners at Huxley WB - #461,,42.95665,-81.267432,,,,,,0
COMMKIE1,462,Commissioners at King Edward EB - #462,,42.960762,-81.205452,,,,,,0
COMMKIE2,463,Commissioners at King Edward WB - #463,,42.960842,-81.205928,,,,,,0
COMMLEA1,464,Commissioners at Leathorne EB - #464,,42.959597,-81.212585,,,,,,0
COMMLEA2,465,Commissioners at Leathorne WB - #465,,42.95983,-81.212451,,,,,,0
COMMLYN4,468,Opposite St George's Parish - #468,,42.958091,-81.326569,,,,,,0
COMMNASH,470,Commissioners at Nashua EB - #470,,42.95727,-81.324072,,,,,,0
COMMNOR1,471,Commissioners at North EB - #471,,42.956376,-81.321049,,,,,,0
COMMNOR2,472,Commissioners at North WB - #472,,42.956876,-81.322416,,,,,,0
COMMNOT1,473,Commissioners west of Nottinghill EB - #473,,42.952527,-81.299502,,,,,,0
COMMNOT3,474,Commissioners east of Nottinghill EB - #474,,42.95305,-81.296777,,,,,,0
COMMPOM1,475,Commissioners west of Pondmills EB - #475,,42.961323,-81.201406,,,,,,0
COMMPOM3,477,Commissioners east of Pondmills EB - #477,,42.961925,-81.197476,,,,,,0
COMMPOM4,478,Commissioners west of Pondmills WB - #478,,42.9615,-81.20151,,,,,,0
COMMSPR1,479,Commissioners at Springbank Park EB - #479,,42.958444,-81.328319,,,,,,0
COMMSPR2,480,Commissioners & Springbank Dr WB - #480,,42.955838,-81.318653,,,,,,0
COMMSPR4,481,Commissioners at Springbank Park WB - #481,,42.958611,-81.328577,,,,,,0
COMMSTEP,482,Commissioners at Stephen WB - #482,,42.962034,-81.339632,,,,,,0
COMMVISC,483,Commissioners at Viscount EB - #483,,42.956481,-81.268808,,,,,,0
CRANCOMM,487,Cranbrook at Commissioners NB - #487,,42.951921,-81.302897,,,,,,0
CRANHIMO,488,Cranbrook at Hillsmount NB - #488,,42.947556,-81.303783,,,,,,0
CRANSALE,489,Cranbrook at Salem NB - #489,,42.950876,-81.302641,,,,,,0
CRUMPAGE,490,Crumlin at Page NB - #490,,43.018673,-81.150931,,,,,,0
CULVCLA1,492,Culver at Clarke EB - #492,,43.013964,-81.180833,,,,,,0
CULVCLA2,493,1826 Culver WB - #493,,43.012837,-81.183469,,,,,,0
CULVCLA4,494,Culver at Clarke WB - #494,,43.013992,-81.180842,,,,,,0
CULVCUL1,495,Culver at Culver Cres EB - #495,,43.00989,-81.184268,,,,,,0
CULVCUL3,496,Culver east of Culver Place EB - #496,,43.010716,-81.182482,,,,,,0
CULVCUL4,497,Culver at Culver Cres. WB - #497,,43.010385,-81.182804,,,,,,0
CULVCUL5,498,Culver north of Culver Place EB - #498,,43.013036,-81.183242,,,,,,0
CULVTHR1,499,Culver at Third EB - #499,,43.008725,-81.187154,,,,,,0
CULVTHR2,500,Culver at Third WB - #500,,43.008742,-81.187181,,,,,,0
DEARBRAD,505,Dearness at Bradley NB - #505,,42.935217,-81.220893,,,,,,0
DEARDUL1,506,Dearness at Dunelm Lane NB - #506,,42.937012,-81.221301,,,,,,0
DEARDUL2,507,Dearness at Dunelm Lane SB - #507,,42.936711,-81.221339,,,,,,0
DEARWILL,508,Dearness at Willow Lane SB - #508,,42.938281,-81.22172,,,,,,0
DELAHAL2,509,Delaware Hall SB - #509,,43.008569,-81.269757,,,,,,0
DELAHALL,510,Delaware Hall NB - #510,,43.008818,-81.26958,,,,,,0
DEVECOM1,513,Deveron at Commissioners NB - #513,,42.961243,-81.194917,,,,,,0
DOONANGU,519,Doon at Angus EB - #519,,43.022231,-81.263841,,,,,,0
DOONCAIT,520,Doon at Caithness Ct EB - #520,,43.02174,-81.265561,,,,,,0
DOONMUS1,521,Doon at Muskoka Cres NB - #521,,43.022039,-81.259615,,,,,,0
DOONMUS2,522,Doon at Muskoka Cres SB - #522,,43.022768,-81.260646,,,,,,0
DOONRAV2,523,Doon at Ravine Ridge Way WB - #523,,43.020554,-81.267587,,,,,,0
DOONRAV4,524,Doon at Ravine Ridge Cres WB - #524,,43.021353,-81.266953,,,,,,0
DOONSUNY,525,Doon at Sunnyside WB - #525,,43.022169,-81.264278,,,,,,0
DOONWIN1,526,Doon at Windemere NB - #526,,43.01838,-81.266234,,,,,,0
DOONWIN2,527,Doon at Windemere SB - #527,,43.018348,-81.266341,,,,,,0
DOWASH1,528,Dow at Ashbury EB - #528,,42.939373,-81.204839,,,,,,0
DOWASH2,529,Dow at Ashbury WB - #529,,42.93947,-81.205079,,,,,,0
DUFFCOLB,531,Dufferin at Colborne EB - #531,,42.988828,-81.241878,,,,,,0
DUFFPICT,532,Dufferin at Picton EB - #532,,42.987954,-81.244986,,,,,,0
DUFFWEL2,535,Dufferin east of Wellington WB - #535,,42.987807,-81.245999,,,,,,0
DUNDADE1,537,Dundas at Adelaide EB - #537,,42.988586,-81.232139,,,,,,0
DUNDADE2,538,Dundas at Adelaide WB - #538,,42.988694,-81.232111,,,,,,0
DUNDARVI,539,Dundas at Arvilla WB - #539,,43.006433,-81.1702,,,,,,0
DUNDASH1,540,Dundas at Ashland EB - #540,,42.995436,-81.208452,,,,,,0
DUNDASH4,542,Dundas east of Ashland WB - #542,,42.995535,-81.208574,,,,,,0
DUNDBEA1,543,Dundas at Beatrice EB - #543,,43.003464,-81.180178,,,,,,0
DUNDBEA2,544,Dundas at Beatrice WB - #544,,43.003435,-81.180831,,,,,,0
DUNDBUR2,546,Dundas at Second WB - #546,,43.000759,-81.190277,,,,,,0
DUNDCARL,547,Dundas at Carlyle EB - #547,,43.008743,-81.161078,,,,,,0
DUNDCLK1,550,Dundas at Clarke EB - #550,,43.00455,-81.176374,,,,,,0
DUNDCLK4,551,Dundas at Clarke WB - #551,,43.004671,-81.176482,,,,,,0
DUNDCOL1,552,Dundas at Colborne EB - #552,,42.986356,-81.239964,,,,,,0
DUNDCOL2,553,Dundas at Colborne WB - #553,,42.986632,-81.239501,,,,,,0
DUNDDORI,554,Dundas at Dorinda WB - #554,,42.993689,-81.214982,,,,,,0
DUNDEAS2,556,Dundas at Eastwood WB - #556,,43.005664,-81.172855,,,,,,0
DUNDEAS3,557,Dundas east of Eastwood EB - #557,,43.005338,-81.173386,,,,,,0
DUNDEGE1,560,Dundas at Egerton EB - #560,,42.992935,-81.217246,,,,,,0
DUNDEGE2,561,Dundas at Egerton WB - #561,,42.993006,-81.217444,,,,,,0
DUNDELE1,562,Dundas at Eleanor EB - #562,,42.994507,-81.211776,,,,,,0
DUNDELIZ,564,Dundas at Elizabeth WB - #564,,42.989457,-81.229542,,,,,,0
DUNDENGL,565,Dundas at English WB - #565,,42.990231,-81.226943,,,,,,0
DUNDFIR1,566,Dundas at First EB - #566,,42.999356,-81.194651,,,,,,0
DUNDFIR2,567,Dundas east of First WB - #567,,42.999659,-81.194212,,,,,,0
DUNDFOR1,569,Dundas at Forest Lawn EB - #569,,43.007235,-81.166554,,,,,,0
DUNDFOR2,570,Dundas at Forest Lawn WB - #570,,43.007187,-81.167455,,,,,,0
DUNDHAL2,572,Dundas east of Hale WB - #572,,42.998415,-81.19858,,,,,,0
DUNDHAL3,573,Dundas west of Hale EB - #573,,42.998058,-81.199337,,,,,,0
DUNDHAL4,574,Dundas west of Hale WB - #574,,42.997855,-81.200533,,,,,,0
DUNDHARC,575,Dundalk at Harcroft Cres SB - #575,,42.946155,-81.243894,,,,,,0
DUNDHEWI,576,Dundas at Hewitt EB - #576,,42.990129,-81.226942,,,,,,0
DUNDHIG1,577,Dundas at Highbury  EB - #577,,42.996596,-81.204339,,,,,,0
DUNDHIG2,578,Dundas at Highbury WB - #578,,42.996795,-81.20435,,,,,,0
DUNDHIN1,579,Dundalk at Hines NB - #579,,42.945118,-81.244214,,,,,,0
DUNDHIN2,580,Dundalk at Hines SB - #580,,42.944798,-81.244219,,,,,,0
DUNDINDU,581,Dundas at Industrial WB - #581,,43.009168,-81.160049,,,,,,0
DUNDKELL,583,Dundas at Kellogg Lane EB - #583,,42.993594,-81.214891,,,,,,0
DUNDLYLE,584,Dundas at Lyle EB - #584,,42.989387,-81.229835,,,,,,0
DUNDMAI1,585,Dundas at Maitland EB - #585,,42.987275,-81.237054,,,,,,0
DUNDMAI2,586,Dundas at Maitland WB - #586,,42.987404,-81.236751,,,,,,0
DUNDMANI,587,Dundas at Manitoba EB - #587,,43.001873,-81.185862,,,,,,0
DUNDONT1,592,Dundas at Ontario EB - #592,,42.991523,-81.222292,,,,,,0
DUNDONT2,593,Dundas at Ontario WB - #593,,42.991671,-81.22204,,,,,,0
DUNDQUE1,594,Dundas at Quebec EB - #594,,42.992387,-81.219149,,,,,,0
DUNDQUE2,595,Dundas at Quebec WB - #595,,42.9924,-81.219503,,,,,,0
DUNDREC1,596,Dundas at Rectory EB - #596,,42.990839,-81.224434,,,,,,0
DUNDREC2,597,Dundas at Rectory WB - #597,,42.990957,-81.22441,,,,,,0
DUNDRIDO,600,Dundas at Ridout EB - #600,,42.982377,-81.254162,,,,,,0
DUNDSASK,602,Dundas at Saskatoon EB - #602,,43.000664,-81.190041,,,,,,0
DUNDSDAL,604,Dundalk at Southdale SB - #604,,42.942477,-81.243882,,,,,,0
DUNDSPE1,605,Dundas at Speight EB - #605,,43.007731,-81.164719,,,,,,0
DUNDSPE2,606,Dundas east of Speight WB - #606,,43.008122,-81.163976,,,,,,0
DUNDSPE4,607,Dundas west of Speight WB - #607,,43.007614,-81.165815,,,,,,0
DUNDSTOC,608,Dundalk at Stockton NB - #608,,42.942628,-81.243814,,,,,,0
DUNDTHR,612,Dundas at Third WB - #612,,43.001981,-81.186037,,,,,,0
DUNDWAT1,614,Dundas east of Waterloo EB - #614,,42.985819,-81.241849,,,,,,0
DUNDWAT2,615,Dundas at Waterloo WB - #615,,42.985855,-81.242283,,,,,,0
DUNDWAV1,617,Dundas east of Wavell EB - #617,,43.006422,-81.169406,,,,,,0
DUNDWAV3,618,Dundas west of Wavell EB - #618,,43.005869,-81.171576,,,,,,0
DUNDWEL2,620,Dundas at Wellington WB - #620,,42.985046,-81.245045,,,,,,0
DUNDWEL5,622,Dundas east of Wellington EB - #622,,42.985037,-81.244492,,,,,,0
DUNDWIL1,623,Dundas at William EB - #623,,42.988001,-81.234357,,,,,,0
DUNDWIL2,624,Dundas at William WB - #624,,42.988167,-81.234044,,,,,,0
EDENEAS1,626,Eden at Easy EB - #626,,42.946669,-81.234692,,,,,,0
EDENEAS2,627,Eden at Easy WB - #627,,42.946758,-81.234301,,,,,,0
EDENNIX,628,Eden at Nixon WB - #628,,42.946509,-81.23719,,,,,,0
EDENVERU,629,Eden at Verulam EB - #629,,42.946947,-81.231417,,,,,,0
EDWABASE,630,Edward at Baseline SB - #630,,42.959872,-81.256607,,,,,,0
EDWAELMW,634,Edward at Elmwood SB - #634,,42.970163,-81.257901,,,,,,0
EDWAHIWY,637,Edward at Highway SB - #637,,42.962174,-81.256749,,,,,,0
EDWALANG,639,Edward at Langarth SB - #639,,42.965432,-81.257158,,,,,,0
EDWATECU,640,Edward at Tecumseh SB - #640,,42.96804,-81.257575,,,,,,0
ELMWCATH,641,Elmwood at Cathcart WB - #641,,42.970779,-81.254355,,,,,,0
ELMWMARL,642,Elmwood at Marley Place WB - #642,,42.971201,-81.250563,,,,,,0
ELMWWORT,643,Elmwood at Wortley WB - #643,,42.970934,-81.252723,,,,,,0
EMERHIW1,644,Emery at Highwood EB - #644,,42.963584,-81.270317,,,,,,0
EMERHIW2,645,Emery at Highwood WB - #645,,42.963681,-81.270068,,,,,,0
EMERPADD,646,Emery at Paddington EB - #646,,42.963561,-81.263574,,,,,,0
EMERPHY1,647,Emery at Phyllis EB - #647,,42.963473,-81.273514,,,,,,0
EMERPHY2,648,Emery at Phyllis WB - #648,,42.963571,-81.272846,,,,,,0
EMERWIN1,649,Emery west of Winston EB - #649,,42.963719,-81.266921,,,,,,0
EMERWIN2,650,Emery at Winston WB - #650,,42.963768,-81.26765,,,,,,0
ENTEHUBR,651,Enterprise at Hubrey EB - #651,,42.933034,-81.184689,,,,,,0
ENTEMID1,652,Enterprise at Midpark EB - #652,,42.932497,-81.186907,,,,,,0
ENTEPOM1,653,Enterprise at Pond Mills EB - #653,,42.931561,-81.189731,,,,,,0
ERNEBRA1,654,Ernest at Bradley NB - #654,,42.934816,-81.236399,,,,,,0
ERNEBRA2,655,Ernest at Bradley SB - #655,,42.934612,-81.236504,,,,,,0
ERNECON1,656,Ernest at Conway NB - #656,,42.932709,-81.23643,,,,,,0
ERNECON2,657,Ernest at Conway SB - #657,,42.933053,-81.236551,,,,,,0
ERNEELVI,658,Ernest at Elvira SB - #658,,42.939341,-81.238539,,,,,,0
ERNEFEN1,659,Ernest at Fennel NB - #659,,42.929488,-81.23594,,,,,,0
ERNEFEN2,660,Ernest at Fennel SB - #660,,42.930285,-81.235775,,,,,,0
ERNEJAL1,662,Ernest at Jalna NB - #662,,42.941107,-81.236799,,,,,,0
ERNEJAL2,663,Ernest at Jalna SB - #663,,42.9407,-81.237401,,,,,,0
ERNEMUR1,665,Opposite Sir Aurther Carty PS - #665,,42.938013,-81.238457,,,,,,0
ERNEMUR3,666,Ernest at Muriel NB - #666,,42.936425,-81.237508,,,,,,0
ERNEPAUL,667,Ernest at Pauline SB - #667,,42.937018,-81.238241,,,,,,0
ERNESCO1,668,Ernest at Scotchmere SB - #668,,42.926915,-81.235957,,,,,,0
ERNESCO2,669,Ernest at Scotchmere NB - #669,,42.926654,-81.2358,,,,,,0
EXETMEG,670,Exeter at Meg EB - #670,,42.92479,-81.228489,,,,,,0
EXETSHOL,671,Exeter at Sholto WB - #671,,42.924966,-81.228259,,,,,,0
EXETWEL1,672,Exeter at Wellington EB - #672,,42.926036,-81.215134,,,,,,0
FANSADE1,682,Fanshawe at Adelaide EB - #682,,43.035026,-81.254038,,,,,,0
FANSADE4,684,Fanshawe west of Adelaide WB - #684,,43.034771,-81.255542,,,,,,0
FANSFRE1,688,Fanshawe east of Freemont EB - #688,,43.036537,-81.24922,,,,,,0
FANSGLE1,692,Fanshawe at Glengarry EB - #692,,43.037458,-81.246181,,,,,,0
FANSGLEN,694,Fanshawe & Glenora Dr. WB - #694,,43.039714,-81.238775,,,,,,0
FANSHAS1,695,Fanshawe at Hastings East EB - #695,,43.031099,-81.267184,,,,,,0
FANSHAS2,696,Fanshawe at Hastings WB - #696,,43.030992,-81.268125,,,,,,0
FANSHAS3,697,Fanshawe at Hastings West EB - #697,,43.030109,-81.2705,,,,,,0
FANSJEN2,699,Fanshawe at Jennifer 1 WB - #699,,43.030043,-81.271423,,,,,,0
FANSJEN4,700,Fanshawe at Jennifer 2 WB - #700,,43.029285,-81.273907,,,,,,0
FANSLOU1,701,Fanshawe at Louise EB - #701,,43.024436,-81.289879,,,,,,0
FANSLOU2,702,Fanshawe at Louise WB - #702,,43.024713,-81.289437,,,,,,0
FANSMCLE,703,Fanshawe at McLean WB - #703,,43.041634,-81.232485,,,,,,0
FANSNCR1,704,Fanshawe west of North Centre EB - #704,,43.028057,-81.277532,,,,,,0
FANSNCR2,705,Fanshawe west of North Centre WB - #705,,43.028239,-81.277573,,,,,,0
FANSNCR3,706,Fanshawe east of North Centre EB - #706,,43.028932,-81.274472,,,,,,0
FANSNCR4,707,Fanshawe east of North Centre WB - #707,,43.026276,-81.284527,,,,,,0
FANSPHIL,708,Fanshawe at Phillbrook WB - #708,,43.032115,-81.264402,,,,,,0
FANSRIC3,710,Fanshawe west of Richmond  EB - #710,,43.026344,-81.283597,,,,,,0
FANSSTO1,711,Fanshawe at Stoneybrook East EB - #711,,43.033409,-81.25933,,,,,,0
FANSSTO2,712,Fanshawe at Stoneybrook East WB - #712,,43.033749,-81.258955,,,,,,0
FANSSTO3,713,Fanshawe at Stoneybrook West EB - #713,,43.032203,-81.263454,,,,,,0
FARRPROU,717,Farrah at Proudfoot EB - #717,,42.986899,-81.289859,,,,,,0
FERNCONT,721,Ferndale at Country Club Drive WB - #721,,42.946932,-81.25205,,,,,,0
FLORASH1,733,Florence at Ashland EB - #733,,42.992132,-81.20756,,,,,,0
FLORASH2,734,Florence at Ashland WB - #734,,42.992391,-81.207153,,,,,,0
FLOREGE1,736,Florence at Egerton EB - #736,,42.989745,-81.21583,,,,,,0
FLOREGE2,737,Florence at Egerton WB - #737,,42.989892,-81.21581,,,,,,0
FLORELE1,738,Florence at Eleanor EB - #738,,42.991399,-81.210202,,,,,,0
FLORELE2,739,Florence at Eleanor WB - #739,,42.991506,-81.210279,,,,,,0
FLORFAI1,740,Florence at Fairgrounds south Gate EB - #740,,42.988583,-81.218615,,,,,,0
FLORFAI2,741,Florence at Fairgrounds south Gate WB - #741,,42.988638,-81.218949,,,,,,0
FLORHIG2,743,Florence at Highbury WB - #743,,42.994128,-81.203191,,,,,,0
FLORKEL1,744,Florence at Kellogg Lane EB - #744,,42.990512,-81.213309,,,,,,0
FLORKEL2,745,Florence at Kellogg Lane WB - #745,,42.990585,-81.213424,,,,,,0
FULLREGA,750,Fuller at Regal WB - #750,,43.022343,-81.225107,,,,,,0
FULLVES2,752,Fuller at Vesta WB - #752,,43.023228,-81.222149,,,,,,0
GAINWON1,756,Sherwood Forest Mall EB - #756,,43.006225,-81.306097,,,,,,0
GAINWON2,757,Sherwood Forest Mall WB - #757,,43.006698,-81.304967,,,,,,0
GARDBER1,759,Gardenwood at Berkshire NB - #759,,42.962908,-81.284862,,,,,,0
GARDRID1,762,Gardenwood at Ridgewood EB - #762,,42.966547,-81.283639,,,,,,0
GARDRID2,763,Gardenwood east of Ridgewood WB - #763,,42.967144,-81.282587,,,,,,0
GARDSOU2,766,Gardenwood at Southcrest SB - #766,,42.964872,-81.285158,,,,,,0
GARDSOU3,767,57 Gardenwood NB - #767,,42.964982,-81.285133,,,,,,0
GLASMORN,768,Glasgow at Mornington NB - #768,,43.001114,-81.221698,,,,,,0
GOREBRAE,783,Gore at Braeside WB - #783,,42.978433,-81.172081,,,,,,0
GOREFIRE,785,Gore at Firestone WB - #785,,42.979208,-81.169434,,,,,,0
GRANHIG1,790,Grand at High EB - #790,,42.971973,-81.240767,,,,,,0
GRANHIG2,791,Grand at High WB - #791,,42.972112,-81.24004,,,,,,0
GRANHIG4,792,84 Grand WB - #792,,42.971894,-81.241983,,,,,,0
GRENADEL,800,Grenfell at Adelaide WB - #800,,43.038129,-81.256174,,,,,,0
GRENGREN,801,Grenfell at Grenfell Cr WB - #801,,43.03882,-81.251795,,,,,,0
GRENMIDA,803,Grenfell at Midale WB - #803,,43.040496,-81.248311,,,,,,0
GREYCOLB,804,Grey at Colborne WB - #804,,42.979241,-81.236529,,,,,,0
GREYWATE,805,Grey at Waterloo WB - #805,,42.978687,-81.238647,,,,,,0
GRIFBBA2,808,Griffith at Byron Baseline WB - #808,,42.951835,-81.340118,,,,,,0
GRIFBOLE,810,Griffith at Boler EB - #810,,42.944079,-81.329386,,,,,,0
GRIFCOMM,811,Griffith at Commissioners SB - #811,,42.962581,-81.342749,,,,,,0
GRIFDEA2,812,Boler Mountain SB - #812,,42.946162,-81.33628,,,,,,0
GRIFFAIR,814,Griffith at Fairlane SB - #814,,42.949289,-81.338973,,,,,,0
GRIFHEMO,816,Griffith at Helena Montague SB - #816,,42.959851,-81.34213,,,,,,0
GRIFNORM,817,Griffith at Norman SB - #817,,42.956299,-81.34119,,,,,,0
GRIFROBW,818,Griffith at Robinwood EB - #818,,42.942271,-81.333418,,,,,,0
GRIFWIDD,822,Griffith at Widdicomb SB - #822,,42.944539,-81.33588,,,,,,0
HALEBEAT,828,Hale at Beattie SB - #828,,42.994478,-81.197049,,,,,,0
HALEBRY1,829,Hale at Brydges NB - #829,,42.99049,-81.195112,,,,,,0
HALEBRY2,830,Hale at Brydges SB - #830,,42.990805,-81.195321,,,,,,0
HALEDOU1,831,Hale at Doulton NB - #831,,42.996102,-81.197705,,,,,,0
HALEDOU2,832,Hale at Doulton SB - #832,,42.995742,-81.197646,,,,,,0
HALEDUND,833,Hale at Dundas NB - #833,,42.997836,-81.19854,,,,,,0
HALEEAST,834,Hale at Eastman NB - #834,,42.994041,-81.196761,,,,,,0
HALEELLS,835,Hale at Ellsworth SB - #835,,42.979462,-81.19096,,,,,,0
HALEGRAY,836,Hale at Graydon NB - #836,,42.992419,-81.196006,,,,,,0
HALEMAGE,837,Hale at Magee SB - #837,,42.981498,-81.191082,,,,,,0
HALEMONT,838,Hale at Montague Place SB - #838,,42.992916,-81.196312,,,,,,0
HALESTE1,839,Hale at Stevenson NB - #839,,42.988161,-81.194023,,,,,,0
HALETRA2,842,Hale at Trafalgar SB - #842,,42.986756,-81.193479,,,,,,0
HALLCOMM,843,Halls Mills at Commissioners SB - #843,,42.960701,-81.334838,,,,,,0
HAMIADE1,845,Hamilton at Adelaide EB - #845,,42.981991,-81.228831,,,,,,0
HAMIADE2,846,Hamilton at Adelaide WB - #846,,42.982041,-81.228328,,,,,,0
HAMIBRA1,847,Hamilton east of Braesyde EB - #847,,42.974058,-81.171792,,,,,,0
HAMIBRA3,848,Hamilton west of Braesyde EB - #848,,42.974851,-81.174527,,,,,,0
HAMIEAST,850,Hamilton at East WB - #850,,42.97858,-81.200065,,,,,,0
HAMIEGE1,851,Hamilton at Egerton EB - #851,,42.980238,-81.21243,,,,,,0
HAMIEGE2,852,Hamilton at Egerton WB - #852,,42.980285,-81.211777,,,,,,0
HAMIELM,854,Hamilton at Elm WB - #854,,42.979565,-81.207202,,,,,,0
HAMIGIL1,855,Hamilton at Giles EB - #855,,42.977873,-81.195945,,,,,,0
HAMIGIL2,856,Hamilton at Giles WB - #856,,42.977934,-81.195434,,,,,,0
HAMIGORE,858,Hamilton at Gore EB - #858,,42.97548,-81.178124,,,,,,0
HAMIHALE,859,Hamilton at Hale WB - #859,,42.977431,-81.191874,,,,,,0
HAMIHIG1,860,Hamilton at Highbury EB - #860,,42.977498,-81.193215,,,,,,0
HAMIHIG2,861,Hamilton at Highbury WB - #861,,42.977777,-81.194291,,,,,,0
HAMILTGR,863,Hamilton at Little Grey WB - #863,,42.981338,-81.224253,,,,,,0
HAMIMAME,865,Hamilton at Mamelon EB - #865,,42.981302,-81.224568,,,,,,0
HAMIMEA1,866,Hamilton west of Meadowlilly EB - #866,,42.976754,-81.187744,,,,,,0
HAMIMEA3,867,Hamilton east of Meadowlilly EB - #867,,42.976569,-81.186135,,,,,,0
HAMINORL,868,Hamilton at Norlan EB - #868,,42.97729,-81.191664,,,,,,0
HAMIPILA,871,Hamilton at Pine Lawn EB - #871,,42.978413,-81.199891,,,,,,0
HAMIREC1,874,Hamilton at Rectory EB - #874,,42.98062,-81.22053,,,,,,0
HAMIREC2,875,Hamilton at Rectory WB - #875,,42.980659,-81.220012,,,,,,0
HAMIRIRU,878,Hamilton at River Run Terrace EB - #878,,42.973015,-81.168216,,,,,,0
HAMISAC1,879,Hamilton at Sackville EB - #879,,42.980326,-81.215376,,,,,,0
HAMISAC2,880,Hamilton at Sackville WB - #880,,42.980438,-81.215361,,,,,,0
HAMISJU1,883,Hamilton at St. Julien EB - #883,,42.97908,-81.204402,,,,,,0
HAMISJU2,884,Hamilton at St. Julien WB - #884,,42.979134,-81.204082,,,,,,0
HAMITENN,885,Hamilton at Tennyson EB - #885,,42.97947,-81.207224,,,,,,0
HAMIWATM,887,Hamilton at Watmar EB - #887,,42.976094,-81.182582,,,,,,0
HASTCHA1,889,Hastings at Chambers NB - #889,,43.037134,-81.270738,,,,,,0
HASTCHA2,890,Hastings at Chambers SB - #890,,43.037031,-81.270715,,,,,,0
HASTDONY,891,Hastings at Donnybrook NB - #891,,43.032086,-81.268232,,,,,,0
HASTVIR1,892,Hastings at Virginia NB - #892,,43.034071,-81.269268,,,,,,0
HIGBBEA1,893,Highbury at Beattie NB - #893,,42.993153,-81.202075,,,,,,0
HIGBBEA2,894,Highbury at Beattie SB - #894,,42.993444,-81.202342,,,,,,0
HIGBBRY1,895,London Transit Office - #895,,42.98814,-81.199636,,,,,,0
HIGBBRY2,896,Highbury at Brydges SB - #896,,42.987717,-81.199767,,,,,,0
HIGBCALV,897,Highbury at Calvin SB - #897,,42.979733,-81.195733,,,,,,0
HIGBCHE1,898,Highbury at Cheapside NB - #898,,43.014531,-81.212459,,,,,,0
HIGBCHE2,899,Highbury at Cheapside SB - #899,,43.013549,-81.212226,,,,,,0
HIGBDUN1,900,Highbury at Dundas NB - #900,,42.997192,-81.203795,,,,,,0
HIGBDUN2,901,Highbury at Dundas SB - #901,,42.996432,-81.203754,,,,,,0
HIGBEDVA,903,Highbury at Edgevalley SB - #903,,43.035601,-81.223379,,,,,,0
HIGBFUL1,905,Montcalm Seconday School - #905,,43.023826,-81.217326,,,,,,0
HIGBFUL2,906,Highbury at Fuller SB - #906,,43.02419,-81.217828,,,,,,0
HIGBGOD1,907,Highbury at Godfrey NB - #907,,43.016829,-81.213651,,,,,,0
HIGBGOD2,908,Highbury at Godfrey SB - #908,,43.016125,-81.213557,,,,,,0
HIGBHAM1,909,Highbury at Hamilton NB - #909,,42.978142,-81.19467,,,,,,0
HIGBHAM2,910,Highbury at Hamilton SB - #910,,42.978272,-81.195015,,,,,,0
HIGBHIC1,911,Highbury at Hillcrest NB - #911,,43.02208,-81.216527,,,,,,0
HIGBHIC2,912,Highbury at Hillcrest SB - #912,,43.0218,-81.21664,,,,,,0
HIGBHURO,913,Highbury at Huron NB - #913,,43.019576,-81.215148,,,,,,0
HIGBKIAR,914,Highbury at Killarney SB - #914,,43.039184,-81.225139,,,,,,0
HIGBKIL2,915,Highbury at Kilally SB - #915,,43.031662,-81.221536,,,,,,0
HIGBLAN1,916,Robarts School - #916,,43.012418,-81.211375,,,,,,0
HIGBLAN2,917,Highbury at Landor SB - #917,,43.012378,-81.211623,,,,,,0
HIGBLPH1,919,Regional Mental Health Centre NB - #919,,43.003245,-81.206768,,,,,,0
HIGBLPH2,920,Regional Mental Health Centre - #920,,43.002418,-81.206675,,,,,,0
HIGBMAGE,921,Highbury at Magee NB - #921,,42.979895,-81.195647,,,,,,0
HIGBOXF1,922,Highbury south of Oxford NB - #922,,43.007636,-81.20895,,,,,,0
HIGBOXF2,923,953 Highbury - #923,,43.005934,-81.208378,,,,,,0
HIGBOXF3,924,John Paul Seconday School - #924,,43.009316,-81.209776,,,,,,0
HIGBOXF4,925,Oxbury Mall - #925,,43.007703,-81.209314,,,,,,0
HIGBTRA1,926,Highbury at Trafalgar NB - #926,,42.983542,-81.197502,,,,,,0
HIGBTRA2,927,Highbury at Trafalgar SB - #927,,42.983478,-81.197678,,,,,,0
HIGBWIL1,928,Highbury at Wilton NB - #928,,42.990666,-81.200884,,,,,,0
HIGBWIL2,929,Highbury at Wilton SB - #929,,42.990734,-81.200996,,,,,,0
HIGHBASE,930,High at Baseline NB - #930,,42.961578,-81.236142,,,,,,0
HIGHCHE1,931,High at Chester NB - #931,,42.963971,-81.236823,,,,,,0
HIGHCHE2,932,High at Chester SB - #932,,42.963761,-81.236863,,,,,,0
HIGHEME1,933,High at Emery NB - #933,,42.965409,-81.237156,,,,,,0
HIGHEME2,934,High at Emery SB - #934,,42.965776,-81.237322,,,,,,0
HIGHGRA2,936,High at Grand SB - #936,,42.9716,-81.238813,,,,,,0
HIGHMCL1,937,High at McClary NB - #937,,42.971092,-81.238544,,,,,,0
HIGHWIN2,940,High at Windsor Cres SB - #940,,42.968769,-81.238034,,,,,,0
HIGHWIN3,941,High at Windsor Cres NB - #941,,42.968628,-81.237928,,,,,,0
HIGVFER1,943,Highview at Ferndale NB - #943,,42.9478,-81.255608,,,,,,0
HIGVFER2,944,Highview at Ferndale SB - #944,,42.94795,-81.255727,,,,,,0
HIGVROS1,945,Highview at Rossmore Crt NB - #945,,42.952747,-81.255522,,,,,,0
HIGVROS2,946,Highview at Rossmore Crt SB - #946,,42.952859,-81.255598,,,,,,0
HIGVROS3,947,Highview at Rossmore Place NB - #947,,42.950456,-81.255103,,,,,,0
HIGVROS4,948,Highview at Rossmore Place SB - #948,,42.950352,-81.255194,,,,,,0
HIGVWHA1,949,Highview at Wharncliffe EB - #949,,42.953793,-81.259268,,,,,,0
HIGVWHA2,950,90 Highview - #950,,42.954023,-81.256969,,,,,,0
HIGVWHA4,951,Highview at Wharncliffe WB - #951,,42.953883,-81.258879,,,,,,0
HOLIEXET,954,Holiday at Exeter SB - #954,,42.926412,-81.218862,,,,,,0
HOLIGREE,955,Holiday at Greenfield SB - #955,,42.928343,-81.219316,,,,,,0
HORTHAMI,966,Horton at Hamilton WB - #966,,42.982727,-81.233841,,,,,,0
HORTMAIT,967,Horton at Maitland EB - #967,,42.982411,-81.234569,,,,,,0
HORTRIC2,969,Horton at Richmond WB - #969,,42.97894,-81.247975,,,,,,0
HORTRID1,970,Horton at Ridout EB - #970,,42.977825,-81.251008,,,,,,0
HORTWAT2,977,Horton at Waterloo WB - #977,,42.981101,-81.239838,,,,,,0
HORTWELL,978,Horton at Wellington EB - #978,,42.980351,-81.242012,,,,,,0
HORTWHA2,980,Horton west of Wharncliffe WB - #980,,42.976819,-81.263014,,,,,,0
HORTWHA3,981,Horton west of Wharncliffe EB - #981,,42.976569,-81.264939,,,,,,0
HORTWHA4,982,Horton west of Wharncliffe 2 WB - #982,,42.97667,-81.265273,,,,,,0
HUBRENT4,988,Hubrey at Enterprise south SB - #988,,42.930474,-81.183804,,,,,,0
HUBRWIL2,989,Hubrey at Wilton Grove SB - #989,,42.929375,-81.183108,,,,,,0
HUDSBAFF,990,Hudson at Baffin Place EB - #990,,42.991818,-81.15844,,,,,,0
HUDSFROB,991,Hudson at Frobisher EB - #991,,42.991822,-81.156712,,,,,,0
HUDSJOLI,992,Hudson at Joliet NB - #992,,42.994047,-81.155125,,,,,,0
HUDSTRAF,993,Hudson at Trafalgar NB - #993,,42.995616,-81.15591,,,,,,0
HUROADE4,997,Huron west of Adelaide WB - #997,,43.011737,-81.243615,,,,,,0
HUROADE6,998,648 Huron - #998,,43.012632,-81.240522,,,,,,0
HUROBARK,999,Huron at Barker WB - #999,,43.01518,-81.232182,,,,,,0
HUROBRI1,1002,Huron at Briarhill EB - #1002,,43.016689,-81.22618,,,,,,0
HUROBRI2,1003,Huron at Briarhill WB - #1003,,43.016375,-81.227748,,,,,,0
HUROCOLB,1005,Huron at Colborne EB - #1005,,43.009233,-81.25175,,,,,,0
HUROFRAS,1006,Huron at Fraser WB - #1006,,43.009652,-81.250539,,,,,,0
HUROHIG2,1008,Huron east of Highbury WB - #1008,,43.020129,-81.215049,,,,,,0
HUROHIG3,1009,Huron east of Highbury EB - #1009,,43.020169,-81.214119,,,,,,0
HUROHIG4,1010,Huron west of Highbury WB - #1010,,43.019826,-81.21617,,,,,,0
HUROMCN1,1011,Huron at McNay EB - #1011,,43.017581,-81.223094,,,,,,0
HUROMCN2,1012,Huron at McNay WB - #1012,,43.017229,-81.224919,,,,,,0
HURORIC1,1013,Huron at Richmond EB - #1013,,43.007251,-81.258524,,,,,,0
HURORIC2,1014,Huron at Richmond WB - #1014,,43.007234,-81.258655,,,,,,0
HUROSAN1,1015,Huron at Sandford EB - #1015,,43.022767,-81.205444,,,,,,0
HUROSAN2,1016,Huron at Sandford WB - #1016,,43.022613,-81.206383,,,,,,0
HUROVES1,1017,Huron at Vesta EB - #1017,,43.018366,-81.22044,,,,,,0
HUROVES2,1018,Huron at Vesta WB - #1018,,43.018876,-81.219421,,,,,,0
HUROWAT1,1019,Huron at Waterloo EB - #1019,,43.008409,-81.254524,,,,,,0
HUROWAT2,1020,Huron at Waterloo WB - #1020,,43.00868,-81.253797,,,,,,0
HUROWEB1,1021,Huron at Webster Stop 1 EB - #1021,,43.021481,-81.209843,,,,,,0
HUROWEB2,1022,Huron at Webster WB - #1022,,43.021579,-81.209919,,,,,,0
HUROWEDG,1024,Huron at Wedgewood WB - #1024,,43.013786,-81.236594,,,,,,0
HYDEFIG1,1026,Hyde Park at Fiddlers Green NB - #1026,,42.971772,-81.316912,,,,,,0
HYDEFIG2,1027,Hyde Park at Fiddlers Green SB - #1027,,42.971742,-81.317032,,,,,,0
HYDEIVAN,1028,Hyde Park at Ivanhill NB - #1028,,42.981119,-81.323053,,,,,,0
HYDEOXF1,1029,Hyde Park south of Oxford NB - #1029,,42.97504,-81.320034,,,,,,0
HYDEOXF2,1030,Hyde Park at Oxford SB - #1030,,42.975361,-81.320346,,,,,,0
HYDERIVE,1031,Hyde Park at Riverside NB - #1031,,42.965014,-81.315052,,,,,,0
HYDEVALE,1032,Hyde Park at Valetta NB - #1032,,42.96904,-81.316032,,,,,,0
INDUOXFO,1034,Industrial at Oxford NB - #1034,,43.02051,-81.164333,,,,,,0
INDUPAG1,1035,Industrial north of Page 1 NB - #1035,,43.015832,-81.162017,,,,,,0
INDUPAG3,1036,Industrial north of Page 2 NB - #1036,,43.017475,-81.162831,,,,,,0
JALNAUGU,1039,Jalna at Augusta WB - #1039,,42.925083,-81.23802,,,,,,0
JALNBEE1,1040,Jalna at Beechbank NB - #1040,,42.940318,-81.230124,,,,,,0
JALNBEE2,1041,Jalna at Beechbank Cr SB - #1041,,42.940752,-81.230922,,,,,,0
JALNBEM2,1043,Jalna at Beechmount SB - #1043,,42.935685,-81.228522,,,,,,0
JALNBRA1,1044,1102 Jalna - #1044,,42.933241,-81.2283,,,,,,0
JALNBRA3,1046,Jalna north of Bradley NB - #1046,,42.934874,-81.228269,,,,,,0
JALNBRA4,1047,Jalna south of Bradley SB - #1047,,42.932977,-81.228337,,,,,,0
JALNCHES,1048,Jalna at Cheswick Circle NB - #1048,,42.92977,-81.24294,,,,,,0
JALNCLAR,1049,Jalna at Clara Cr  WB - #1049,,42.924953,-81.239608,,,,,,0
JALNCOLE,1050,Jalna at Colette NB - #1050,,42.936824,-81.245692,,,,,,0
JALNERI1,1051,Jalna at Erica NB - #1051,,42.934258,-81.244643,,,,,,0
JALNERI2,1052,Jalna at Erica north SB - #1052,,42.936714,-81.245736,,,,,,0
JALNERI4,1053,Jalna at Erica south SB - #1053,,42.933905,-81.244384,,,,,,0
JALNERN3,1055,Jalna at Ernest north EB - #1055,,42.940752,-81.236511,,,,,,0
JALNERN4,1056,Jalna at Ernest south WB - #1056,,42.925286,-81.235316,,,,,,0
JALNERN5,1057,Jalna at Ernest south EB - #1057,,42.925268,-81.234714,,,,,,0
JALNFAI1,1058,1559 Jalna NB - #1058,,42.927868,-81.243276,,,,,,0
JALNFAI2,1059,Jalna at Fairchild WB - #1059,,42.92513,-81.241265,,,,,,0
JALNJOS1,1060,Jalna at Josselyn NB - #1060,,42.938372,-81.245514,,,,,,0
JALNJOS2,1061,Jalna north of Josselyn SB - #1061,,42.940554,-81.244017,,,,,,0
JALNJOS4,1062,Jalna south of Josselyn SB - #1062,,42.938103,-81.245772,,,,,,0
JALNMEG,1063,Jalna at Meg WB - #1063,,42.926158,-81.231418,,,,,,0
JALNPIER,1064,Jalna at Piers NB - #1064,,42.928458,-81.22641,,,,,,0
JALNPON1,1065,Jalna at Ponderosa NB - #1065,,42.938001,-81.22926,,,,,,0
JALNPOP1,1067,Jalna at Poplar WB - #1067,,42.941114,-81.231727,,,,,,0
JALNSDAL,1071,Jalna at Southdale NB - #1071,,42.941258,-81.243625,,,,,,0
JALNTUMB,1072,Jalna at Tumbleweed SB - #1072,,42.938776,-81.229523,,,,,,0
KINGBUR1,1077,King Edward at Burlington NB - #1077,,42.962132,-81.20638,,,,,,0
KINGCHI1,1078,King Edward at Chippendale NB - #1078,,42.964116,-81.208154,,,,,,0
KINGCHI2,1079,King Edward at Chippendale SB - #1079,,42.964385,-81.20833,,,,,,0
KINGCLAR,1080,King at Clarence EB - #1080,,42.983335,-81.245868,,,,,,0
KINGEAGL,1082,King Edward at Eagle SB - #1082,,42.963123,-81.207767,,,,,,0
KINGECHO,1083,King Edward at Echo SB - #1083,,42.966097,-81.209213,,,,,,0
KINGOAK1,1084,Kingsway at Oakridge EB - #1084,,42.977778,-81.294035,,,,,,0
KINGOAK2,1085,Kingsway at Oakridge WB - #1085,,42.977689,-81.294624,,,,,,0
KINGRICH,1086,King at Richmond EB - #1086,,42.982623,-81.248536,,,,,,0
KINGSCE1,1087,King Edward at Scenic NB - #1087,,42.967366,-81.210686,,,,,,0
KINGSCE2,1088,King Edward at Scenic SB - #1088,,42.967282,-81.210728,,,,,,0
KINGTHO2,1089,King Edward at Thompson SB - #1089,,42.969234,-81.212795,,,,,,0
KINGVERM,1090,King Edward at Vermont Ave NB - #1090,,42.965959,-81.208889,,,,,,0
KINGWON1,1091,Kingsway at Wonderland EB - #1091,,42.978802,-81.290458,,,,,,0
KINGWON2,1092,Kingsway at Wonderland WB - #1092,,42.978844,-81.290607,,,,,,0
KIPPADEL,1093,Kipps at Adelaide EB - #1093,,43.01807,-81.244059,,,,,,0
KIPPARBO,1094,Kipps at Arbour Glen EB - #1094,,43.021146,-81.233784,,,,,,0
KIPPBARK,1095,Kipps at Barker EB - #1095,,43.020271,-81.236561,,,,,,0
KIPPBELF,1096,Kipps at Belfield EB - #1096,,43.018918,-81.241149,,,,,,0
KIPPBRIA,1097,Kipps at Briarhill EB - #1097,,43.022453,-81.229344,,,,,,0
LAMBMID1,1104,Talbot College NB - #1104,,43.007611,-81.269936,,,,,,0
LANGHOLB,1105,Langarth at Holborn WB - #1105,,42.964875,-81.262683,,,,,,0
LAWSBAN1,1107,Lawson at Banting EB - #1107,,42.999543,-81.304563,,,,,,0
LAWSBAN2,1108,Lawson at Banting WB - #1108,,42.999634,-81.304529,,,,,,0
LAWSDENL,1109,Lawson at Denlaw EB - #1109,,42.997874,-81.306513,,,,,,0
LAWSLIMB,1110,Lawson at Limberlost WB - #1110,,42.99789,-81.306596,,,,,,0
LIMBARD1,1118,Limberlost at Ardsley NB - #1118,,43.00247,-81.309096,,,,,,0
LIMBARD2,1119,Limberlost north of Ardsley SB - #1119,,43.002366,-81.309254,,,,,,0
LIMBARD3,1120,Limberlost between Lawson and Ardsley NB - #1120,,42.999973,-81.308371,,,,,,0
LIMBARD4,1121,Limberlost south of Ardsley SB - #1121,,42.999916,-81.308442,,,,,,0
LIMBGAI1,1124,Limberlost at Gainsborough NB - #1124,,43.005037,-81.309399,,,,,,0
LIMBGAI2,1125,Limberlost at Gainsborough SB - #1125,,43.004912,-81.309452,,,,,,0
MACKEMER,1131,MacKay at Emery SB - #1131,,42.963916,-81.264329,,,,,,0
MAITREGE,1132,Maitland at Regent SB - #1132,,43.00902,-81.248152,,,,,,0
MANITWEE,1133,Manitoulin at Tweedsmuir NB - #1133,,42.982666,-81.181256,,,,,,0
MARCNOEL,1137,Marconi at Noel SB - #1137,,42.990376,-81.164965,,,,,,0
MARCRAI2,1138,Marconi at Railton WB - #1138,,42.986971,-81.152882,,,,,,0
MARCTRAF,1139,Marconi at Trafalgar SB - #1139,,42.992638,-81.167302,,,,,,0
MASOSTO1,1140,Masonville Place Stop #1 - #1140,,43.025446,-81.281591,,,,,,0
MASOSTO2,1141,Masonville Place Stop #2 - #1141,,43.025666,-81.281723,,,,,,0
MASOSTO3,1142,Masonville Place Stop #3 - #1142,,43.02586,-81.281823,,,,,,0
MASOSTO4,1143,Masonville Place Stop #4 - #1143,,43.025883,-81.28161,,,,,,0
MASOSTO5,1144,Masonville Place Stop #5 - #1144,,43.025452,-81.281354,,,,,,0
MASOSTO6,1145,Masonville Place Stop #6 - #1145,,43.025437,-81.281381,,,,,,0
MCNACHEA,1155,McNay at Cheapside SB - #1155,,43.011816,-81.221157,,,,,,0
MCNAHUR1,1156,McNay at Huron NB - #1156,,43.016992,-81.223656,,,,,,0
MCNAHUR2,1157,McNay at Huron SB - #1157,,43.01692,-81.223727,,,,,,0
MCNAMEL2,1159,McNay at Melsandra SB - #1159,,43.020562,-81.226064,,,,,,0
MCNAROC2,1161,McNay at Rock SB - #1161,,43.015513,-81.222983,,,,,,0
MCNAVIC1,1162,McNay north of Victoria NB - #1162,,43.014689,-81.222497,,,,,,0
MCNAVIC2,1163,McNay at Victoria SB - #1163,,43.013474,-81.221978,,,,,,0
MCNAVIC3,1164,McNay south of Victoria NB - #1164,,43.013697,-81.222006,,,,,,0
MEADREA1,1165,Meadowgate at Reardon NB - #1165,,42.963084,-81.180223,,,,,,0
MEGEXE1,1168,Meg at Exeter NB - #1168,,42.925081,-81.231996,,,,,,0
MEGEXE2,1169,Meg at Exeter SB - #1169,,42.925303,-81.232154,,,,,,0
MELSBRIA,1170,Melsandra at Briarhill WB - #1170,,43.019908,-81.228117,,,,,,0
MELSSUSS,1171,Melsandra at Sussex WB - #1171,,43.018891,-81.231867,,,,,,0
MIDDPERT,1173,Talbot College - #1173,,43.008224,-81.270543,,,,,,0
MILLASHB,1174,Millbank at Ashbury SB - #1174,,42.942113,-81.202548,,,,,,0
MILLBEX1,1175,687 Millbank - #1175,,42.940822,-81.200906,,,,,,0
MILLBEX2,1176,Millbank at Bexhill  SB - #1176,,42.941025,-81.201199,,,,,,0
MILLBEX3,1177,Millbank at Bexhill  NB - #1177,,42.938394,-81.200185,,,,,,0
MILLBEX4,1178,720 Millbank - #1178,,42.938947,-81.200415,,,,,,0
MILLBRID,1179,Millbank at Bridington NB - #1179,,42.942167,-81.202469,,,,,,0
MILLDOWN,1180,Millbank at Downing NB - #1180,,42.946786,-81.211933,,,,,,0
MILLDUD1,1181,Millbank at Dudley NB - #1181,,42.94404,-81.20437,,,,,,0
MILLDUD2,1182,Millbank at Dudley SB - #1182,,42.944011,-81.204454,,,,,,0
MILLEBU2,1183,131 Millbank - #1183,,42.946075,-81.211972,,,,,,0
MILLEBU4,1184,Millbank at Ebury SB - #1184,,42.9487,-81.211287,,,,,,0
MILLHARR,1185,Millbank at Harrow  NB - #1185,,42.945846,-81.204681,,,,,,0
MILLPAR1,1186,Millbank at Parliament EB - #1186,,42.952091,-81.20796,,,,,,0
MILLPAR2,1187,Millbank at Parliament WB - #1187,,42.952118,-81.20764,,,,,,0
MILLSDA1,1188,Millbank at Southdale NB - #1188,,42.945211,-81.21175,,,,,,0
MILLSDA2,1189,Millbank at Southdale SB - #1189,,42.944955,-81.211803,,,,,,0
MILLSDA4,1190,Laurier Secondary School - #1190,,42.94561,-81.204729,,,,,,0
MILLSHA1,1191,Millbank at Shaftsbury east NB - #1191,,42.950273,-81.205551,,,,,,0
MILLSHA2,1192,Millbank at Shaftsbury east SB - #1192,,42.950104,-81.205462,,,,,,0
MILLSHA3,1193,Millbank at Shaftsbury NB - #1193,,42.949798,-81.210517,,,,,,0
MILLSHA4,1194,Millbank at Shaftsbury west SB - #1194,,42.949744,-81.210611,,,,,,0
MILLSTAN,1195,Millbank at Stanhope NB - #1195,,42.948279,-81.21163,,,,,,0
MONTFUND,1199,Montabello at Fundy NB - #1199,,42.978533,-81.178654,,,,,,0
MONTGORE,1200,Montabello at Gore NB - #1200,,42.977249,-81.178022,,,,,,0
MONTTWEE,1206,Montabello at Tweedsmuir NB - #1206,,42.979914,-81.179396,,,,,,0
MORNCON1,1207,Mornington at Connaught EB - #1207,,43.003582,-81.211879,,,,,,0
MORNCON2,1208,Mornington east of Connaught WB - #1208,,43.003289,-81.212212,,,,,,0
MORNCURR,1209,Mornington at Curry WB - #1209,,43.002531,-81.217507,,,,,,0
MORNGLAS,1210,Mornington at Glasgow WB - #1210,,43.00138,-81.221542,,,,,,0
MORNOXF2,1214,632 Mornington - #1214,,43.00644,-81.212786,,,,,,0
MORNOXF3,1215,Mornington at Oxford NB - #1215,,43.006934,-81.212908,,,,,,0
MORNOXF4,1216,600 Mornington SB - #1216,,43.005277,-81.212194,,,,,,0
MORNSAL1,1217,Mornington at Salisbury EB - #1217,,43.002589,-81.214663,,,,,,0
MORNSAL2,1218,Mornington at Salisbury WB - #1218,,43.002796,-81.215322,,,,,,0
MORNSTRA,1219,Mornington at Strand EB - #1219,,43.001751,-81.219938,,,,,,0
NATSCI,1222,Natural Science - #1222,,43.010172,-81.273174,,,,,,0
NEPT342N,1225,342 Neptune - #1225,,42.993231,-81.13926,,,,,,0
NEPTSOV1,1226,Neptune at Sovereign NB - #1226,,42.989943,-81.137503,,,,,,0
NEPTSOV3,1227,396 Neptune NB - #1227,,42.995874,-81.140651,,,,,,0
NEWBADE1,1228,Newbold at Adelaide EB - #1228,,42.934315,-81.208905,,,,,,0
NEWBBESS,1229,Newbold at Bessemer EB - #1229,,42.934002,-81.211509,,,,,,0
NEWBCON1,1231,Newbold at Consortium EB - #1231,,42.934763,-81.20534,,,,,,0
NEWBTOWE,1232,Newbold at Towerline EB - #1232,,42.93529,-81.201678,,,,,,0
NIXOCRE2,1234,Nixon at Creston SB - #1234,,42.944628,-81.237278,,,,,,0
NIXOEDEN,1235,Nixon at Eden NB - #1235,,42.946199,-81.237585,,,,,,0
NIXOSDAL,1236,Nixon at Southdale SB - #1236,,42.943059,-81.236891,,,,,,0
NIXOWIMB,1237,Nixon at Southdale NB - #1237,,42.94292,-81.236739,,,,,,0
NOELBOW,1238,Noel at Bow EB - #1238,,42.990022,-81.161463,,,,,,0
NOTRVISC,1240,Notre Dame at Viscount SB - #1240,,42.94825,-81.270439,,,,,,0
OAKVCHIP,1244,Oakville at Chippewa NB - #1244,,43.029372,-81.19657,,,,,,0
OAKVHURO,1245,Oakville at Huron NB - #1245,,43.027589,-81.192298,,,,,,0
OAKVTILI,1246,Oakville at Tilipe NB - #1246,,43.028653,-81.193699,,,,,,0
OSGOADE1,1249,Osgoode east of Adelaide EB - #1249,,42.937583,-81.208226,,,,,,0
OSGOADE3,1250,Osgoode west of Adelaide EB - #1250,,42.938882,-81.210941,,,,,,0
OSGOBRE1,1251,Osgoode at Breckenridge EB - #1251,,42.937553,-81.217407,,,,,,0
OSGOBRE2,1252,Osgoode at Breckenridge WB - #1252,,42.93763,-81.217447,,,,,,0
OSGOFITZ,1253,Osgoode at Fitzroy WB - #1253,,42.937771,-81.214978,,,,,,0
OSGOKIN1,1254,Osgoode at Kinburn EB - #1254,,42.937955,-81.213015,,,,,,0
OSGOKIN2,1255,Osgoode at Kinburn WB - #1255,,42.939015,-81.21095,,,,,,0
OSGOKIN4,1256,1081 Osgoode WB - #1256,,42.938117,-81.212643,,,,,,0
OSGOMETC,1257,Osgoode at Metcalfe EB - #1257,,42.937637,-81.215597,,,,,,0
OSGOWOO1,1258,Osgoode at Woodrow EB - #1258,,42.938591,-81.206426,,,,,,0
OSGOWOO2,1259,Osgoode at Woodrow WB - #1259,,42.938269,-81.206641,,,,,,0
OXFOADE1,1260,Oxford at Adelaide EB - #1260,,42.99992,-81.237831,,,,,,0
OXFOADE2,1261,Oxford at Adelaide WB - #1261,,43.000109,-81.237837,,,,,,0
OXFOANDR,1262,Oxford at St. Andrews EB - #1262,,42.992511,-81.262967,,,,,,0
OXFOBEA1,1263,Oxford at Beaverbrook EB - #1263,,42.987116,-81.281374,,,,,,0
OXFOBEA2,1264,Oxford west of Beaverbrook WB - #1264,,42.986398,-81.284148,,,,,,0
OXFOBEA4,1265,Oxford east of Beaverbrook WB - #1265,,42.987331,-81.280986,,,,,,0
OXFOBRI1,1266,Oxford at Britannia EB - #1266,,42.989831,-81.272053,,,,,,0
OXFOCAP1,1268,Oxford at Capulet Lane EB - #1268,,42.982657,-81.296316,,,,,,0
OXFOCAP2,1269,Oxford at Capulet Lane WB - #1269,,42.983137,-81.295367,,,,,,0
OXFOCHE1,1270,Chelsey Park Retirement Home - #1270,,42.988137,-81.277858,,,,,,0
OXFOCHE2,1271,Oxford at Cherryhill Blvd WB - #1271,,42.988906,-81.275677,,,,,,0
OXFOCHE3,1272,Oxford at Cherryhill Blvd EB - #1272,,42.988555,-81.276434,,,,,,0
OXFOCLA1,1273,Oxford east of Clarke EB - #1273,,43.016393,-81.180957,,,,,,0
OXFOCLA2,1274,General Dynamics Gate 1 WB - #1274,,43.01769,-81.176831,,,,,,0
OXFOCLA3,1275,General Dynamics Gate 1 EB - #1275,,43.017621,-81.176624,,,,,,0
OXFOCLA5,1276,Oxford west of Clarke EB - #1276,,43.015144,-81.185375,,,,,,0
OXFOCLA6,1277,Oxford at 3M WB - #1277,,43.015335,-81.185152,,,,,,0
OXFOCLE1,1278,Oxford at Clemens EB - #1278,,43.006137,-81.216628,,,,,,0
OXFOCLE2,1279,Oxford at Clemens WB - #1279,,43.006156,-81.216871,,,,,,0
OXFOCOL1,1280,Oxford at Colborne EB - #1280,,42.997644,-81.245728,,,,,,0
OXFOCOL2,1281,Oxford at Colborne WB - #1281,,42.997886,-81.245338,,,,,,0
OXFOELI1,1285,Oxford at Elizabeth EB - #1285,,43.000833,-81.234811,,,,,,0
OXFOELI2,1286,Oxford at Elizabeth WB - #1286,,43.00104,-81.234328,,,,,,0
OXFOELL1,1287,Oxford at Elliott EB - #1287,,43.001599,-81.2321,,,,,,0
OXFOELL2,1288,Oxford at Elliott WB - #1288,,43.001825,-81.231662,,,,,,0
OXFOEMPI,1289,Oxford at Empire EB - #1289,,43.006964,-81.213768,,,,,,0
OXFOFERN,1290,Oxford at Fernely WB - #1290,,42.991842,-81.26563,,,,,,0
OXFOFID1,1291,Oxford at Fiddlers Green EB - #1291,,42.976309,-81.318179,,,,,,0
OXFOFID2,1292,Oxford at Fiddlers Green WB - #1292,,42.976606,-81.317731,,,,,,0
OXFOFLEE,1293,Oxford at Fleet EB - #1293,,43.004968,-81.220662,,,,,,0
OXFOFRE1,1294,Oxford at Freele EB - #1294,,42.978416,-81.310941,,,,,,0
OXFOFRE2,1295,Oxford at Freele WB - #1295,,42.978637,-81.310731,,,,,,0
OXFOGAM1,1296,Oxford at Gammage EB - #1296,,43.002591,-81.228723,,,,,,0
OXFOGAM2,1297,Oxford at Gammage WB - #1297,,43.002899,-81.228015,,,,,,0
OXFOGEO1,1298,Oxford at St. George EB - #1298,,42.994743,-81.255576,,,,,,0
OXFOGEO2,1299,Oxford at St. George WB - #1299,,42.994758,-81.255944,,,,,,0
OXFOGM1,1300,General Dynamics Gate 4 - #1300,,43.01888,-81.172206,,,,,,0
OXFOGM2,1301,Oxford at General Dynamics Main Gate - #1301,,43.019425,-81.170703,,,,,,0
OXFOGM3,1302,2035 Oxford - #1302,,43.019868,-81.16872,,,,,,0
OXFOGRAC,1303,Oxford & Grace St WB - #1303,,42.992617,-81.262911,,,,,,0
OXFOGUI1,1304,Oxford at Guildwood Gate EB - #1304,,42.97745,-81.314125,,,,,,0
OXFOGUI2,1305,Oxford at Guildwood Blvd WB - #1305,,42.980049,-81.305883,,,,,,0
OXFOGUI3,1306,Oxford at Guildwood Gate WB - #1306,,42.977515,-81.314731,,,,,,0
OXFOHIG1,1307,Oxbury Centre - #1307,,43.007889,-81.210425,,,,,,0
OXFOHIG2,1308,Oxford at Highbury WB - #1308,,43.008198,-81.209901,,,,,,0
OXFOHIG3,1309,Oxford at Highbury EB - #1309,,43.008538,-81.208231,,,,,,0
OXFOHIG4,1310,John Paul Secondary School - #1310,,43.008983,-81.2073,,,,,,0
OXFOHYD1,1311,Oxford at Hyde Park EB - #1311,,42.975591,-81.320655,,,,,,0
OXFOHYD2,1312,Oxford at Hyde Park WB - #1312,,42.975275,-81.322369,,,,,,0
OXFOIND1,1313,Oxford east of Industrial EB - #1313,,43.021161,-81.164167,,,,,,0
OXFOIND2,1314,Oxford at Industrial WB - #1314,,43.020498,-81.166915,,,,,,0
OXFOIND3,1315,Oxford west of Industrial EB - #1315,,43.020401,-81.16688,,,,,,0
OXFOJUNI,1316,Oxford at Juniper EB - #1316,,42.979571,-81.30685,,,,,,0
OXFOLAR1,1317,Oxford at Laruel EB - #1317,,42.98131,-81.300912,,,,,,0
OXFOLAR2,1318,Oxford at Laurel WB - #1318,,42.981567,-81.30059,,,,,,0
OXFOLYMA,1319,Oxford at Lyman WB - #1319,,43.005299,-81.219749,,,,,,0
OXFOMAI1,1320,Oxford at Maitland EB - #1320,,42.998642,-81.242401,,,,,,0
OXFOMAI2,1321,Oxford at Maitland WB - #1321,,42.998552,-81.243088,,,,,,0
OXFOMORN,1322,Oxford at Mornington EB - #1322,,43.00738,-81.212057,,,,,,0
OXFOOAKS,1323,Oxford at Oakside WB - #1323,,43.007013,-81.213901,,,,,,0
OXFOOLH1,1324,Oxford at Old Hunt EB - #1324,,42.972605,-81.331086,,,,,,0
OXFOOLH2,1325,Oxford at Old Hunt WB - #1325,,42.972682,-81.331109,,,,,,0
OXFOPLAT,1326,Oxford at Platts Lane WB - #1326,,42.989933,-81.272489,,,,,,0
OXFOPRO1,1327,Oxford at Proudfoot Lane EB - #1327,,42.985262,-81.287429,,,,,,0
OXFOPRO2,1328,Oxford at Proudfoot WB - #1328,,42.985491,-81.287381,,,,,,0
OXFOQUE1,1329,Oxford at Quebec EB - #1329,,43.003786,-81.224718,,,,,,0
OXFOQUE2,1330,Oxford at Quebec WB - #1330,,43.003936,-81.22446,,,,,,0
OXFORAT1,1331,Oxford at Rathowen EB - #1331,,42.990925,-81.268407,,,,,,0
OXFORAT2,1332,Oxford at Rathowen WB - #1332,,42.991005,-81.268365,,,,,,0
OXFORIC1,1333,Oxford at Richmond EB - #1333,,42.995586,-81.252763,,,,,,0
OXFORIC2,1334,Oxford at Richmond WB - #1334,,42.995433,-81.253762,,,,,,0
OXFOROE2,1336,Oxford at Roehampton WB - #1336,,43.010051,-81.203514,,,,,,0
OXFOROY1,1337,Oxford at Royal York EB - #1337,,42.974746,-81.323709,,,,,,0
OXFOROY2,1338,Oxford at Royal York WB - #1338,,42.974646,-81.324364,,,,,,0
OXFOROY3,1339,St Aidens Church - #1339,,42.973813,-81.326909,,,,,,0
OXFOROY4,1340,Marie Curie School - #1340,,42.973802,-81.327313,,,,,,0
OXFOSAN1,1341,Oxford at Sanatorium EB - #1341,,42.971955,-81.333339,,,,,,0
OXFOSEC1,1343,Oxford at Second EB - #1343,,43.012141,-81.19586,,,,,,0
OXFOSEC2,1344,Oxford at Fanshawe College Blvd WB - #1344,,43.012511,-81.195051,,,,,,0
OXFOSPIT,1345,Oxford at Spittal EB - #1345,,43.005337,-81.219336,,,,,,0
OXFOSTE1,1346,Oxford at Sterling EB - #1346,,43.003347,-81.226199,,,,,,0
OXFOSTE2,1347,Oxford at Sterling WB - #1347,,43.003349,-81.226471,,,,,,0
OXFOSTRA,1348,Oxford at Strand EB - #1348,,43.004494,-81.222268,,,,,,0
OXFOSTUA,1349,Oxford at Stuart WB - #1349,,43.004707,-81.221764,,,,,,0
OXFOTAL1,1350,Oxford at Talbot EB - #1350,,42.993941,-81.258169,,,,,,0
OXFOTAL2,1351,Oxford at Talbot WB - #1351,,42.994224,-81.257846,,,,,,0
OXFOTHI1,1352,Oxford at Third EB - #1352,,43.013429,-81.191453,,,,,,0
OXFOTHI2,1353,Oxford at Third WB - #1353,,43.013802,-81.190523,,,,,,0
OXFOWAT1,1354,Oxford at Waterloo EB - #1354,,42.996846,-81.248395,,,,,,0
OXFOWAT2,1355,Oxford at Waterloo WB - #1355,,42.997142,-81.247865,,,,,,0
OXFOWEL1,1356,Oxford at Wellington EB - #1356,,42.996041,-81.251186,,,,,,0
OXFOWEL2,1357,Oxford at Wellington WB - #1357,,42.996245,-81.250872,,,,,,0
OXFOWHA1,1358,Oxford at Wharncliffe EB - #1358,,42.992073,-81.264464,,,,,,0
OXFOWHA2,1359,Oxford at Wharncliffe WB - #1359,,42.992133,-81.264637,,,,,,0
OXFOWIL1,1360,Oxford at William EB - #1360,,42.9993,-81.240156,,,,,,0
OXFOWIL2,1361,Oxford at William WB - #1361,,42.999381,-81.240321,,,,,,0
OXFOWIST,1362,Oxford at Wistow WB - #1362,,43.00755,-81.211851,,,,,,0
OXFOWON1,1363,Oxford at Wonderland EB - #1363,,42.984173,-81.29128,,,,,,0
OXFOWON2,1364,Oxford at Wonderland WB - #1364,,42.984031,-81.292317,,,,,,0
PAGEVMPW,1371,Page at Vetrans WB - #1371,,43.016019,-81.15896,,,,,,0
PARKMAEN,1373,Parkwood Hospital Main Entrance WB - #1373,,42.956426,-81.22502,,,,,,0
PARKWEC2,1376,Parkwood Hospital at  Western Counties Rd WB - #1376,,42.956614,-81.22348,,,,,,0
PERTWIN1,1378,Perth Dr at Windermere NB - #1378,,43.01492,-81.274939,,,,,,0
PERTWIN2,1379,Perth at Windermere SB - #1379,,43.014975,-81.275094,,,,,,0
PHILPHIL,1383,Phillbrook at Phillbrook - #1383,,43.037281,-81.263101,,,,,,0
PHILSILV,1385,Phillbrook at Silverbrook WB - #1385,,43.038474,-81.258745,,,,,,0
PLATCHE1,1389,Platts Lane at Cherryhill Place NB - #1389,,42.991765,-81.272751,,,,,,0
PLATCHE2,1390,Platts Lane at Cherryhill Place SB - #1390,,42.991966,-81.273038,,,,,,0
PLATOXF1,1391,Platts Lane at Oxford NB - #1391,,42.990499,-81.272074,,,,,,0
PLATOXF2,1392,Platts Lane at Oxford SB - #1392,,42.990316,-81.272041,,,,,,0
PLATTRO1,1393,Platts Lane at Trott NB - #1393,,42.995535,-81.274696,,,,,,0
PLATTRO2,1394,Platts Lane at Trott SB - #1394,,42.995009,-81.274594,,,,,,0
PONDAILS,1399,Pond Mills at Ailsa SB - #1399,,42.970378,-81.204489,,,,,,0
PONDBAN1,1400,Pond Mills at Banbury NB - #1400,,42.956785,-81.199411,,,,,,0
PONDBAN2,1401,Pond Mills at Banbury SB - #1401,,42.957486,-81.199719,,,,,,0
PONDBRA2,1402,Pond Mills south of Bradley SB - #1402,,42.940033,-81.192238,,,,,,0
PONDBUC4,1405,Pond Mills at Buchanan SB - #1405,,42.935958,-81.191411,,,,,,0
PONDBURL,1406,Pond Mills at Burlinton Gate NB - #1406,,42.963757,-81.201037,,,,,,0
PONDCLE1,1407,Pond Mills at Cleveland NB - #1407,,42.96746,-81.202057,,,,,,0
PONDCLE2,1408,Pond Mills at Cleveland SB - #1408,,42.967599,-81.202236,,,,,,0
PONDCOMM,1409,Pond Mills at Commissioners NB - #1409,,42.962133,-81.200663,,,,,,0
PONDDEV2,1410,Pond Mills north of Deveron SB - #1410,,42.960494,-81.200409,,,,,,0
PONDDEV4,1411,Pond Mills south of Deveron SB - #1411,,42.955138,-81.198965,,,,,,0
PONDEGER,1412,Pond Mills atThompson NB - #1412,,42.97274,-81.209805,,,,,,0
PONDENT2,1413,Pond Mills at Enterprise SB - #1413,,42.932011,-81.191569,,,,,,0
PONDMILL,1414,Pond Mills at Millers SB - #1414,,42.949311,-81.195525,,,,,,0
PONDMIR1,1415,450 Pond Mills - #1415,,42.953063,-81.196476,,,,,,0
PONDMIR2,1416,Pond Mills at Millridge SB - #1416,,42.950517,-81.196272,,,,,,0
PONDMIR3,1417,Pond Mills at Millridge NB - #1417,,42.951371,-81.196403,,,,,,0
PONDMIR4,1418,492 Pond Mills - #1418,,42.953053,-81.196603,,,,,,0
PONDOLDH,1419,Pond Mills at Commissioners NB - #1419,,42.960678,-81.200278,,,,,,0
PONDPONV,1420,Pond Mills at Pondview NB - #1420,,42.949301,-81.195321,,,,,,0
PONDSCE1,1421,Pond Mills at Scenic NB - #1421,,42.971897,-81.207463,,,,,,0
PROUBEA1,1423,Proudfoot at Beaverbrook EB - #1423,,42.984089,-81.281458,,,,,,0
PROUBEA2,1424,Proudfoot at Beaverbrook WB - #1424,,42.984185,-81.28149,,,,,,0
PROUBEA3,1425,Proudfoot at Beaverbrook SB - #1425,,42.989486,-81.290155,,,,,,0
PROUFAR1,1427,Proudfoot north of Farrah NB - #1427,,42.988837,-81.289729,,,,,,0
PROUFAR2,1428,Proudfoot at Farrah SB - #1428,,42.98627,-81.288546,,,,,,0
PROUFAR3,1429,Proudfoot at Farrah NB - #1429,,42.987136,-81.288882,,,,,,0
PROUOXF1,1430,Proudfoot north of Oxford NB - #1430,,42.9861,-81.288366,,,,,,0
PROUOXF2,1431,Proudfoot at Oxford SB - #1431,,42.984805,-81.287837,,,,,,0
PROUOXF3,1432,Proudfoot south of Oxford NB - #1432,,42.984669,-81.28764,,,,,,0
QUEBDUFF,1434,Quebec at Dufferin SB - #1434,,42.99448,-81.219981,,,,,,0
QUEBDUND,1435,Quebec at Dundas NB - #1435,,42.992891,-81.219093,,,,,,0
QUEBELI1,1436,Quebec at Elias NB - #1436,,42.997177,-81.221188,,,,,,0
QUEBELI2,1437,Quebec at Elias SB - #1437,,42.996906,-81.221212,,,,,,0
QUEBLOR1,1438,Quebec at Lorne NB - #1438,,42.995928,-81.220581,,,,,,0
QUEBLOR2,1439,Quebec at Lorne SB - #1439,,42.995327,-81.220397,,,,,,0
QUEBMORN,1440,Quebec at Mornington SB - #1440,,43.000372,-81.222939,,,,,,0
QUEBQUEE,1441,Quebec at Queens NB - #1441,,42.993921,-81.219616,,,,,,0
QUEECLAR,1442,Queens at Clarence WB - #1442,,42.98586,-81.247506,,,,,,0
QUENRIDO,1443,Queens at Ridout WB - #1443,,42.98368,-81.254207,,,,,,0
RAILKENN,1445,Railton at Kennedy Place SB - #1445,,42.994444,-81.152093,,,,,,0
RAILPORT,1446,Railton at Portsmouth SB - #1446,,42.988241,-81.150232,,,,,,0
RAILSADD,1447,Railton at Saddy SB - #1447,,42.990818,-81.151272,,,,,,0
REARROTH,1454,Reardon at Rothwell WB - #1454,,42.962015,-81.176893,,,,,,0
REGEMAIT,1455,Regent at Maitland WB - #1455,,43.008797,-81.247692,,,,,,0
REGEWILL,1456,Regent at William EB - #1456,,43.009425,-81.245384,,,,,,0
RICHCANT,1460,Richmond at Canterbury NB - #1460,,43.019282,-81.277079,,,,,,0
RICHCENT,1463,Richmond at Central SB - #1463,,42.990176,-81.250873,,,,,,0
RICHCHE1,1464,Richmond at Cheapside NB - #1464,,43.001527,-81.256205,,,,,,0
RICHCHE2,1465,Richmond at Cheapside SB - #1465,,43.001785,-81.25651,,,,,,0
RICHDUF2,1467,Richmond at Dufferin SB - #1467,,42.98696,-81.250781,,,,,,0
RICHGREY,1475,Richmond at Grey SB - #1475,,42.976781,-81.246257,,,,,,0
RICHGRO1,1476,Richmond at Grosvenor NB - #1476,,43.000039,-81.255383,,,,,,0
RICHGRO2,1477,Richmond at Grosvenor SB - #1477,,42.999325,-81.255246,,,,,,0
RICHHOT1,1478,Richmond north of Horton NB - #1478,,42.979378,-81.247439,,,,,,0
RICHHOT2,1479,Richmond at Horton SB - #1479,,42.979296,-81.247519,,,,,,0
RICHHOT3,1480,Richmond south Horton NB - #1480,,42.978707,-81.247083,,,,,,0
RICHHUR1,1481,Richmond at Huron NB - #1481,,43.007342,-81.259406,,,,,,0
RICHHUR2,1482,Richmond at Huron SB - #1482,,43.007167,-81.259424,,,,,,0
RICHHYM1,1483,Richmond at Hyman NB - #1483,,42.991222,-81.250886,,,,,,0
RICHJACK,1485,Richmond at Jacksway SB - #1485,,43.023201,-81.28093,,,,,,0
RICHJAM1,1486,Richmond at St. James NB - #1486,,42.997499,-81.254137,,,,,,0
RICHJAM2,1487,Richmond at St. James SB - #1487,,42.997724,-81.254361,,,,,,0
RICHKEN1,1488,Richmond at Kent NB - #1488,,42.988374,-81.250678,,,,,,0
RICHKEN2,1489,Richmond at Kent SB - #1489,,42.988156,-81.250752,,,,,,0
RICHKIN1,1490,Richmond at King NB - #1490,,42.98234,-81.2489,,,,,,0
RICHMILL,1493,Richmond at Mill SB - #1493,,42.992941,-81.251948,,,,,,0
RICHOXF1,1494,Richmond at Oxford NB - #1494,,42.995977,-81.253301,,,,,,0
RICHOXF2,1495,Richmond at Oxford SB - #1495,,42.994909,-81.252915,,,,,,0
RICHPALL,1496,Richmond at Pall Mall NB - #1496,,42.992773,-81.251649,,,,,,0
RICHPAR2,1497,Richmond at Parkdale Ave SB - #1497,,43.011195,-81.263629,,,,,,0
RICHQUEE,1501,Richmond at Queens NB - #1501,,42.985456,-81.250388,,,,,,0
RICHRAY1,1502,Richmond north of Raymond NB - #1502,,43.013188,-81.265588,,,,,,0
RICHRAY2,1503,Richmond north of Raymond SB - #1503,,43.012999,-81.26554,,,,,,0
RICHREG1,1506,Richmond at Regent NB - #1506,,43.005693,-81.25836,,,,,,0
RICHSHAV,1508,Richmond at Shavian SB - #1508,,43.021409,-81.279995,,,,,,0
RICHSIM1,1509,Richmond at Simcoe NB - #1509,,42.977308,-81.246413,,,,,,0
RICHSIM2,1510,Richmond at Simcoe SB - #1510,,42.977941,-81.246863,,,,,,0
RICHSUNN,1511,Richmond at Sunnyside NB - #1511,,43.02172,-81.279942,,,,,,0
RICHUNI1,1512,Richmond at University NB - #1512,,43.008865,-81.261028,,,,,,0
RICHUNI2,1513,Richmond at University SB - #1513,,43.009232,-81.261626,,,,,,0
RICHVIC1,1514,Richmond at Victoria NB - #1514,,43.003609,-81.257279,,,,,,0
RICHVIC2,1515,Richmond at Victoria SB - #1515,,43.003846,-81.257557,,,,,,0
RICHWEC1,1516,Richmond at Westchester NB - #1516,,43.018073,-81.274989,,,,,,0
RICHWES2,1518,Richmond at Western SB - #1518,,43.019685,-81.278143,,,,,,0
RICHWES4,1519,1548 Richmond - #1519,,43.018984,-81.276938,,,,,,0
RICHWIN1,1520,Richmond north of Windermere NB - #1520,,43.016808,-81.272741,,,,,,0
RICHWIN2,1521,Richmond at Windermere SB - #1521,,43.015204,-81.270279,,,,,,0
RICHWYND,1523,Richmond at Wyndham Gate SB - #1523,,43.017966,-81.275139,,,,,,0
RIDOBAKE,1531,Ridout at Baker NB - #1531,,42.967407,-81.246257,,,,,,0
RIDOBAS1,1532,Ridout at Baseline NB - #1532,,42.960517,-81.242718,,,,,,0
RIDOBAS2,1533,Ridout at Baseline SB - #1533,,42.961246,-81.243171,,,,,,0
RIDOCRA1,1537,Ridout at Craig NB - #1537,,42.974264,-81.249696,,,,,,0
RIDOCRA2,1538,Ridout at Craig SB - #1538,,42.974335,-81.249832,,,,,,0
RIDOELMW,1539,Ridout at Elmwood SB - #1539,,42.972601,-81.248939,,,,,,0
RIDOEME1,1540,Ridout at Emery NB - #1540,,42.964715,-81.244873,,,,,,0
RIDOEME2,1541,Ridout at Emery SB - #1541,,42.965227,-81.245179,,,,,,0
RIDOGRAN,1544,Ridout & Grand Ave NB - #1544,,42.971431,-81.248245,,,,,,0
RIDOHICK,1545,Ridout at Hickson NB - #1545,,42.962205,-81.243574,,,,,,0
RIDOHORT,1546,Ridout at Horton SB - #1546,,42.977359,-81.251468,,,,,,0
RIDOING1,1547,Ridout at Ingleside NB - #1547,,42.975851,-81.250566,,,,,,0
RIDOKING,1549,Ridout at King SB - #1549,,42.982047,-81.253855,,,,,,0
RIDOMOU2,1553,Ridout at Mountsfiled SB - #1553,,42.959504,-81.242285,,,,,,0
RIDOROSE,1554,Ridout at Rosel SB - #1554,,42.962909,-81.244023,,,,,,0
RIDOTEC1,1555,Ridout at Tecumseh NB - #1555,,42.969427,-81.247221,,,,,,0
RIDOTEC2,1556,Ridout at Tecumseh SB - #1556,,42.969589,-81.247432,,,,,,0
RIDOWINS,1557,Ridout at Windsor SB - #1557,,42.967104,-81.246159,,,,,,0
RIDOYORK,1558,Ridout at York SB - #1558,,42.980443,-81.253033,,,,,,0
RIVEANT1,1562,Riverside at St. Anthony EB - #1562,,42.962403,-81.323363,,,,,,0
RIVEANT2,1563,Riverside at St. Anthony WB - #1563,,42.962511,-81.323507,,,,,,0
RIVEBEA1,1564,Riverside at Beaverbrook EB - #1564,,42.980089,-81.278145,,,,,,0
RIVEBEA2,1565,Riverside east of Beaverbrook WB - #1565,,42.981044,-81.276047,,,,,,0
RIVEBEA4,1566,Riverside west of Beaverbrook WB - #1566,,42.980225,-81.277985,,,,,,0
RIVEBRE1,1567,Riverside at Braemar EB - #1567,,42.977428,-81.286644,,,,,,0
RIVEBRE2,1568,Riverside at Braemar WB - #1568,,42.977418,-81.286814,,,,,,0
RIVEBRIT,1569,Riverside at Britannia WB - #1569,,42.982751,-81.271188,,,,,,0
RIVECAVE,1570,Riverside at Cavendish EB - #1570,,42.982955,-81.26652,,,,,,0
RIVEHAR1,1581,Riverside at Hartson east EB - #1581,,42.962934,-81.318488,,,,,,0
RIVEHAR2,1582,Riverside at Hartson east WB - #1582,,42.96313,-81.318102,,,,,,0
RIVEHAR3,1583,Riverside at Hartson west EB - #1583,,42.962989,-81.326031,,,,,,0
RIVEHAR4,1584,Riverside at Hartson WB - #1584,,42.963005,-81.32587,,,,,,0
RIVEMTPL,1587,Riverside at Mt. Pleasant  WB - #1587,,42.983125,-81.26699,,,,,,0
RIVEMURD,1588,Riverside at Murdock EB - #1588,,42.98263,-81.271756,,,,,,0
RIVEORI1,1589,Riverside at Old Riverside EB - #1589,,42.978596,-81.283087,,,,,,0
RIVEORI2,1590,Riverside at Old Riverside WB - #1590,,42.978628,-81.283336,,,,,,0
RIVESAN1,1592,Riverside at Sanatorium EB - #1592,,42.963646,-81.329265,,,,,,0
RIVESAN2,1593,Riverside at Sanatorium WB - #1593,,42.963806,-81.329802,,,,,,0
RIVEWHA1,1600,Riverside at Wharncliffe EB - #1600,,42.982759,-81.26198,,,,,,0
RIVEWHA4,1601,Riverside West of Wharncliffe WB - #1601,,42.983051,-81.263566,,,,,,0
RIVEWIL1,1602,Riverside at Wilson EB - #1602,,42.982691,-81.25983,,,,,,0
RIVEWIL2,1603,Riverside at Wilson WB - #1603,,42.982815,-81.259629,,,,,,0
RIVEWON1,1604,Riverside at Wonderland EB - #1604,,42.976327,-81.289551,,,,,,0
RIVEWOO1,1606,Riverside at Woodward EB - #1606,,42.982944,-81.268758,,,,,,0
RIVEWOO2,1607,Riverside at Woodward WB - #1607,,42.983031,-81.269268,,,,,,0
ROXBWEL2,1608,Roxburgh at Wellington WB - #1608,,42.919249,-81.207311,,,,,,0
ROYACAS1,1609,Royal at Castle EB - #1609,,42.998691,-81.169127,,,,,,0
ROYACAS2,1610,Royal at Castle WB - #1610,,42.998722,-81.169297,,,,,,0
SALIQUEB,1617,Salisbury at Quebec EB - #1617,,42.999937,-81.222027,,,,,,0
SANDBEC1,1618,Sandford at Beckworth NB - #1618,,43.020779,-81.203558,,,,,,0
SANDBEC2,1619,Sandford at Beckworth SB - #1619,,43.021116,-81.203822,,,,,,0
SANDBENT,1620,Sandford at Bentley SB - #1620,,43.026168,-81.2047,,,,,,0
SANDHUR1,1623,Sandford at Huron NB - #1623,,43.022057,-81.204205,,,,,,0
SANDHUR2,1624,Sandford North of Huron SB - #1624,,43.023417,-81.204959,,,,,,0
SANDVER1,1625,Sandringham at Verulam EB - #1625,,42.9482,-81.23162,,,,,,0
SANDVER2,1626,Sandringham at Verulam WB - #1626,,42.948212,-81.231745,,,,,,0
SANDWIL2,1627,Sandringham at Wilkins SB - #1627,,42.948826,-81.234216,,,,,,0
SANDWIL4,1628,Sandringham at Wilkins WB - #1628,,42.948943,-81.234219,,,,,,0
SANIPLY1,1629,Sanatorium at Plymouth NB - #1629,,42.966241,-81.331549,,,,,,0
SANIPLY2,1630,Sanatorium at Plymouth SB - #1630,,42.966492,-81.3318,,,,,,0
SANIRIV1,1631,Sanatorium at Riverside NB - #1631,,42.965445,-81.331142,,,,,,0
SANIRIV2,1632,Sanatorium at Riverside SB - #1632,,42.965376,-81.331258,,,,,,0
SANISUT1,1633,Sanatorium at Sutton Place NB - #1633,,42.968935,-81.332904,,,,,,0
SANISUT2,1634,St Thomas Aquanis Secondary School SB - #1634,,42.969123,-81.333177,,,,,,0
SARNALD1,1635,Sarnia at Aldersbrook EB - #1635,,42.993777,-81.304513,,,,,,0
SARNALD2,1636,Sarnia at Aldersbrook WB - #1636,,42.993911,-81.30438,,,,,,0
SARNBRES,1637,Sarnia at Brescia Lane WB - #1637,,43.000384,-81.282356,,,,,,0
SARNCAS1,1638,Sarnia at Wonderland EB - #1638,,42.995637,-81.297882,,,,,,0
SARNCAS3,1639,Sarnia at Castlegrove Blvd  2 EB - #1639,,42.998833,-81.287041,,,,,,0
SARNCOOM,1640,Sarnia at Coombs EB - #1640,,43.000373,-81.281972,,,,,,0
SARNLEYT,1641,Sarnia at Leyton WB - #1641,,42.997241,-81.293041,,,,,,0
SARNRIPP,1643,Sarnia at Rippleton Ave EB - #1643,,42.997194,-81.292838,,,,,,0
SARNSLEI,1644,Sarnia at Sleightholme WB - #1644,,42.998918,-81.287283,,,,,,0
SARNTHIS,1645,Sarnia at Thistledown Way WB - #1645,,42.994976,-81.300882,,,,,,0
SARNWES1,1646,Sarnia at Western EB - #1646,,43.001328,-81.278769,,,,,,0
SARNWES2,1647,Sarnia at Western  WB - #1647,,43.001883,-81.277365,,,,,,0
SARNWON1,1648,Sarnia at Chapman EB - #1648,,42.994776,-81.300912,,,,,,0
SEAGHYPK,1653,Seagull at Hyde Park WB - #1653,,43.008661,-81.335843,,,,,,0
SHELBUR2,1656,Shelbourne at Burlington Gate SB - #1656,,42.963197,-81.200141,,,,,,0
SHELDEVE,1657,Shelbourne at Deveron EB - #1657,,42.963077,-81.196346,,,,,,0
SHOLEXE1,1658,Sholto at Exeter NB - #1658,,42.925738,-81.225438,,,,,,0
SHOLEXE2,1659,Sholto at Exeter SB - #1659,,42.925398,-81.225474,,,,,,0
SHOLJAL1,1660,Sholto at Jalna Blvd NB - #1660,,42.926831,-81.226266,,,,,,0
SHOLJAL2,1661,Jalna at Archer N Leg SB - #1661,,42.927482,-81.226401,,,,,,0
SKYLCHAM,1662,Skyline at Chambers EB - #1662,,43.041714,-81.27174,,,,,,0
SORRHURO,1663,Sorrel at Huron NB - #1663,,43.026155,-81.192299,,,,,,0
SORRPERT,1665,Sorrel at Perth Ave NB - #1665,,43.024095,-81.192746,,,,,,0
SOUTADE1,1666,Southdale & Adelaide EB - #1666,,42.944433,-81.21403,,,,,,0
SOUTADE2,1667,Southdale at Adelaide WB - #1667,,42.944488,-81.215236,,,,,,0
SOUTAND1,1668,Southdale at Andover EB - #1668,,42.93949,-81.273187,,,,,,0
SOUTAND2,1669,Southdale at Andover  WB - #1669,,42.939725,-81.273089,,,,,,0
SOUTBEA1,1670,Southcrest at Beachwood EB - #1670,,42.964424,-81.276425,,,,,,0
SOUTDUL1,1673,Southdale at Dulaney Dr. EB - #1673,,42.942115,-81.24042,,,,,,0
SOUTDUL2,1674,Southdale at Dulaney WB - #1674,,42.942263,-81.240731,,,,,,0
SOUTDUN2,1675,Southdale at Dundalk WB - #1675,,42.941979,-81.244486,,,,,,0
SOUTEAS2,1678,Southdale at Easy WB - #1678,,42.942993,-81.232317,,,,,,0
SOUTHOME,1680,Southdale at Homeview WB - #1680,,42.941369,-81.251878,,,,,,0
SOUTJAL1,1681,Southdale East of Jalna Blvd EB - #1681,,42.941877,-81.242985,,,,,,0
SOUTKOR1,1683,Southdale at Koru Crt EB - #1683,,42.94568,-81.200586,,,,,,0
SOUTKOR2,1684,Southdale at Koru Crt WB - #1684,,42.945718,-81.200797,,,,,,0
SOUTMIL1,1685,Southdale at Millbank Dr E EB - #1685,,42.945247,-81.205007,,,,,,0
SOUTMIL2,1686,Southdale East of Millbank WB - #1686,,42.945472,-81.203992,,,,,,0
SOUTMIL3,1687,St Francis Elementary School EB - #1687,,42.944869,-81.209276,,,,,,0
SOUTMIL4,1688,964 Southdale WB - #1688,,42.944983,-81.209328,,,,,,0
SOUTMIL5,1689,Southdale at Millbank Dr West EB - #1689,,42.944622,-81.212057,,,,,,0
SOUTMIL6,1690,Southdale West of Millbank WB - #1690,,42.944705,-81.212499,,,,,,0
SOUTERNE,1691,Southdale at Ernest St EB - #1691,,42.942535,-81.236357,,,,,,0
SOUTNIX1,1691,Southdale at Nixon EB - #1691,,42.942378,-81.237243,,,,,,0
SOUTNIX2,1692,Southdale at Nixon WB - #1692,,42.942523,-81.237558,,,,,,0
SOUTNOD1,1694,Southdale West of Notre Dame Dr  EB - #1694,,42.940031,-81.266737,,,,,,0
SOUTNOD2,1695,Southdale East of Notre Dame WB - #1695,,42.940325,-81.264321,,,,,,0
SOUTNOD4,1696,Southdale West of Notre Dame WB - #1696,,42.940115,-81.267119,,,,,,0
SOUTPOM1,1697,Southdale at Pond Mills Road EB - #1697,,42.945932,-81.197587,,,,,,0
SOUTPOM2,1698,Southdale at Pond Mills WB - #1698,,42.945995,-81.196964,,,,,,0
SOUTVER1,1700,Southdale at Verulam EB - #1700,,42.943068,-81.229588,,,,,,0
SOUTVER2,1701,Southdale at Verulam WB - #1701,,42.943186,-81.230062,,,,,,0
SOUTWATE,1702,South at Waterloo St EB - #1702,,42.976051,-81.23789,,,,,,0
SOUTWEL1,1703,Southdale at Wellington EB - #1703,,42.94359,-81.224377,,,,,,0
SOUTWEL2,1704,Southdale at Wellington  WB - #1704,,42.943796,-81.224327,,,,,,0
SOUTWEL3,1705,South at Wellington St EB - #1705,,42.975453,-81.24009,,,,,,0
SOUTWHA1,1706,Southdale West of Wharncliffe  EB - #1706,,42.940606,-81.258723,,,,,,0
SOUTWHA2,1707,Southdale West of Wharncliffe WB - #1707,,42.940725,-81.259235,,,,,,0
SOUTWHA3,1708,Southdale East of Wharncliffe EB - #1708,,42.940758,-81.256515,,,,,,0
SOUTWHA4,1709,Southdale East of Wharncliffe WB - #1709,,42.940992,-81.255824,,,,,,0
SOUTWHOK,1710,Southdale at White Oak Sideroad EB - #1710,,42.941189,-81.251447,,,,,,0
SOUTWIL1,1711,Southdale at Willow Dr EB - #1711,,42.943924,-81.220704,,,,,,0
SOUTWIL2,1712,Southdale at Willow WB - #1712,,42.943993,-81.220942,,,,,,0
SOUTWON1,1713,Southdale at Wonderland EB - #1713,,42.938977,-81.280693,,,,,,0
SOUTWON2,1714,Southdale at Wonderland  WB - #1714,,42.939343,-81.278838,,,,,,0
SOVEBEL1,1716,Sovereign at Belleisle Crt NB - #1716,,43.002839,-81.146751,,,,,,0
SOVEBEL2,1717,Sovereign at Belleisle Crt SB - #1717,,43.002321,-81.146558,,,,,,0
SOVENEP2,1718,Sovereign at Neptune 1 SB - #1718,,42.996341,-81.143305,,,,,,0
SOVENEP4,1719,Sovereign at  Neptune Cres 2 SB - #1719,,42.991413,-81.140522,,,,,,0
SOVETART,1720,Sovereign at Tartan SB - #1720,,42.994375,-81.1422,,,,,,0
SOVETRA1,1721,Sovereign at Trafalgar NB - #1721,,42.999174,-81.144828,,,,,,0
SOVETRA2,1722,Sovereign at Trafalgar SB - #1722,,42.998875,-81.144742,,,,,,0
SOWEFADA,1723,South Wenige at Father Dalton Ave WB - #1723,,43.046634,-81.24536,,,,,,0
SOWEMARI,1724,South Wenige at Marigold St NB - #1724,,43.046064,-81.251868,,,,,,0
SOWESAV1,1725,South Wenige at Savannah Dr SB - #1725,,43.051188,-81.243668,,,,,,0
SOWESAV2,1726,South Wenige Between Savannah & Nicole WB - #1726,,43.048447,-81.243185,,,,,,0
SOWESUNN,1727,South Wenige at Sunningdale NB - #1727,,43.048287,-81.25293,,,,,,0
SPRIBER1,1728,Springbank at Berkshire Dr FS 1 EB - #1728,,42.964565,-81.290752,,,,,,0
SPRIBER3,1729,492 Springbank EB - #1729,,42.966105,-81.28766,,,,,,0
SPRIBER4,1730,Springbank at Berkshire WB - #1730,,42.964413,-81.291526,,,,,,0
SPRICHEL,1732,Springbank at Chelsea WB - #1732,,42.971031,-81.27803,,,,,,0
SPRICOM1,1733,Springbank at Commissioners W EB - #1733,,42.954695,-81.3155,,,,,,0
SPRICOM2,1734,Springbank at Commissioners WB - #1734,,42.954791,-81.315584,,,,,,0
SPRIGRE1,1735,Springbank at Greenside EB - #1735,,42.973233,-81.273206,,,,,,0
SPRIGRE2,1736,Springbank at Greenside WB - #1736,,42.97379,-81.272368,,,,,,0
SPRIGROW,1737,Springbank at Greenwood EB - #1737,,42.971006,-81.277714,,,,,,0
SPRIHIC1,1738,Springbank at Hillcrest Dr EB - #1738,,42.958905,-81.303107,,,,,,0
SPRIHIC2,1739,Springbank at Hillcrest Dr WB - #1739,,42.959062,-81.302965,,,,,,0
SPRIJAR1,1740,Springbank at Jarvis St EB - #1740,,42.960397,-81.299607,,,,,,0
SPRIJAR2,1741,Springbank at Jarvis St WB - #1741,,42.960018,-81.300721,,,,,,0
SPRIKER1,1742,Springbank at Kernohan Parkway EB - #1742,,42.969358,-81.281031,,,,,,0
SPRIKER2,1743,Springbank at Kernohan Pkwy WB - #1743,,42.969429,-81.281274,,,,,,0
SPRIMAR1,1744,Springbank at Mary Ave EB - #1744,,42.967616,-81.284642,,,,,,0
SPRIMAR2,1745,Springbank at Mary Ave WB - #1745,,42.968086,-81.283962,,,,,,0
SPRIQUI1,1746,Springbank at Quinella EB - #1746,,42.961586,-81.2971,,,,,,0
SPRIQUI2,1747,Springbank at Quinella WB - #1747,,42.961707,-81.297108,,,,,,0
SPRISPRI,1748,Springbank at Springbank EB - #1748,,42.975016,-81.270079,,,,,,0
SPRITROW,1749,Springbank at Trowbridge WB - #1749,,42.967187,-81.285715,,,,,,0
SPRIWES1,1750,928 Springbank EB - #1750,,42.956079,-81.312829,,,,,,0
SPRIWES3,1752,Springbank at Westmount EB - #1752,,42.956933,-81.3085,,,,,,0
SPRIWES4,1753,Springbank West of Westmount WB - #1753,,42.956117,-81.312954,,,,,,0
SPRIWON1,1754,Springbank at Wonderland  EB - #1754,,42.96374,-81.292535,,,,,,0
SPRIWON2,1755,Springbank at Wonderland  WB - #1755,,42.96345,-81.293513,,,,,,0
STANFANS,1757,Stanton at Fanshawe Park SB - #1757,,43.010887,-81.333916,,,,,,0
STANPERR,1758,Stanley at Perry EB - #1758,,42.978172,-81.259762,,,,,,0
STANWHAR,1759,Stanley at Wharncliffe EB - #1759,,42.977719,-81.261462,,,,,,0
STANWORT,1760,Stanley at Wortley EB - #1760,,42.978927,-81.257107,,,,,,0
THIRCUL1,1769,Third at Culver Dr NB - #1769,,43.011042,-81.189523,,,,,,0
THIRCUL2,1770,Third at Culver  SB - #1770,,43.008655,-81.188486,,,,,,0
THIROXF1,1771,Third at Oxford NB - #1771,,43.013179,-81.19059,,,,,,0
THIROXF2,1772,Third at Oxford  SB - #1772,,43.011824,-81.190053,,,,,,0
THISBKW1,1773,Thistlewood at Blackwater EB - #1773,,43.044314,-81.25747,,,,,,0
THOMADE1,1776,Princess Elizabeth Elementary School EB - #1776,,42.968377,-81.221932,,,,,,0
THOMADE2,1777,Thompson at Adelaide WB - #1777,,42.968275,-81.223112,,,,,,0
THOMCHE1,1779,Thompson at Chesterfield  EB - #1779,,42.969255,-81.216183,,,,,,0
THOMCHE2,1780,Thompson at Chesterfield  WB - #1780,,42.969298,-81.21699,,,,,,0
THOMEME1,1781,Thompson at Emerson  EB - #1781,,42.968937,-81.219792,,,,,,0
THOMGLA1,1783,Thompson at Gladstone Ave EB - #1783,,42.969382,-81.21484,,,,,,0
THOMGLA2,1784,Thompson at GladstoneWB - #1784,,42.969463,-81.214921,,,,,,0
THOMJACQ,1785,Thompson at Jacqueline WB - #1785,,42.969025,-81.2199,,,,,,0
THOMKED1,1786,Thompson at King Edward EB - #1786,,42.96964,-81.212344,,,,,,0
THOMKED2,1787,Thompson at King Edward  WB - #1787,,42.969612,-81.213279,,,,,,0
TRAFATK2,1788,Trafalgar at Atkinson WB - #1788,,42.990542,-81.1767,,,,,,0
TRAFBALF,1789,Trafalgar at Balfour Place EB - #1789,,42.989742,-81.179139,,,,,,0
TRAFBANC,1790,Trafalgar at Bancroft  WB - #1790,,42.994791,-81.1617,,,,,,0
TRAFCLA1,1791,Trafalgar at Clarke Rd EB - #1791,,42.992012,-81.171074,,,,,,0
TRAFCLA2,1792,Trafalgar at Clarke Rd WB - #1792,,42.992585,-81.169541,,,,,,0
TRAFCLA4,1793,Trafalgar West of Clarke Rd WB - #1793,,42.992076,-81.171269,,,,,,0
TRAFDAWN,1794,Trafalgar at Dawn WB - #1794,,42.989922,-81.178952,,,,,,0
TRAFHUD2,1796,Trafalgar at Hudson  WB - #1796,,42.99612,-81.157048,,,,,,0
TRAFHUD4,1797,Trafalgar Between Hudson and Admiral WB - #1797,,42.995507,-81.159215,,,,,,0
TRAFMARC,1798,Trafalgar at Marconi Blvd  WB - #1798,,42.993244,-81.167201,,,,,,0
TRAFSTE1,1799,Trafalgar at Stevenson Ave EB - #1799,,42.986995,-81.189037,,,,,,0
TRAFSTE2,1800,Trafalgar at Stevenson Ave WB - #1800,,42.986732,-81.190088,,,,,,0
TRAFTHO1,1801,Trafalgar at Thorne Ave EB - #1801,,42.987655,-81.18663,,,,,,0
TRAFTHO2,1802,Trafalgar at Thorne WB - #1802,,42.987559,-81.18716,,,,,,0
TRAFVAN1,1803,Trafalgar at Vancouver  EB - #1803,,42.989143,-81.181387,,,,,,0
TRAFVAN2,1804,Trafalgar at Vancouver  WB - #1804,,42.989093,-81.181802,,,,,,0
TWEECOU2,1810,Tweedsmuir at Court Lane East WB - #1810,,42.982252,-81.183322,,,,,,0
TWEECOU4,1811,Tweedsmuir at Court Lane West WB - #1811,,42.982365,-81.185867,,,,,,0
TWEEELLE,1812,Tweedsmuir at Ellesworth WB - #1812,,42.983016,-81.187912,,,,,,0
TWEEHALE,1813,Tweedsmuir at Hale  WB - #1813,,42.982862,-81.191508,,,,,,0
TWEEJASP,1814,Tweedsmuir at Jasper WB - #1814,,42.983139,-81.189357,,,,,,0
UNIVHOS1,1816,University Hospital NB - #1816,,43.013585,-81.274229,,,,,,0
UNIVHOS2,1817,Universtiy Hospital SB - #1817,,43.012631,-81.273926,,,,,,0
UNIVRIC1,1818,University Main Gates EB - #1818,,43.008938,-81.261536,,,,,,0
UNIVRIC2,1819,University Main Gates WB - #1819,,43.008913,-81.262137,,,,,,0
UNIVSUN1,1820,University Dr at Sunset EB - #1820,,43.007727,-81.26561,,,,,,0
UNIVSUN2,1821,Elgin Hall WB - #1821,,43.007963,-81.265357,,,,,,0
UPPECHI4,1825,Upper Queens North of Chiddington SB - #1825,,42.95352,-81.240689,,,,,,0
UPPECOM1,1826,Upper Queens at Commissioners Rd NB - #1826,,42.957458,-81.241439,,,,,,0
UPPECOM2,1827,Upper Queens at Commissioners Rd SB - #1827,,42.957062,-81.24153,,,,,,0
VALEADEV,1832,Valetta at Adevon WB - #1832,,42.975224,-81.301735,,,,,,0
VALECAYL,1833,Valetta at Cayley Dr WB - #1833,,42.976208,-81.295904,,,,,,0
VALECRAM,1834,Valetta at Cramston Cres EB - #1834,,42.975337,-81.303691,,,,,,0
VALEDER2,1835,Valetta east of Deerpark Cr WB - #1835,,42.974878,-81.306085,,,,,,0
VALEDER4,1836,Valetta West of Deerpark WB - #1836,,42.973494,-81.306776,,,,,,0
VALEHIB1,1837,Valetta at Hibicus EB - #1837,,42.972508,-81.30825,,,,,,0
VALEHIB2,1838,Valetta at Hibicus  WB - #1838,,42.972441,-81.308761,,,,,,0
VALEHYP1,1839,Valetta at Hyde Park EB - #1839,,42.968761,-81.315413,,,,,,0
VALEHYP2,1840,Valetta at Hyde Park WB - #1840,,42.968863,-81.315273,,,,,,0
VALEOAKR,1841,Valetta at Oakridge Dr EB - #1841,,42.976409,-81.294914,,,,,,0
VALEOPK2,1843,Valetta at Oak Park EB - #1843,,42.973202,-81.30679,,,,,,0
VALEPLA1,1844,Valetta at Plantation Rd EB - #1844,,42.971157,-81.312919,,,,,,0
VALEPLA2,1845,Valetta at Plantation Rd WB - #1845,,42.971028,-81.313638,,,,,,0
VALESAL1,1846,Valetta & Salway Place EB - #1846,,42.972067,-81.309793,,,,,,0
VALESHR1,1847,Valetta at Shrene Terrace EB - #1847,,42.975006,-81.299449,,,,,,0
VALESHR2,1848,Valetta at Shrene Terrace WB - #1848,,42.975439,-81.29854,,,,,,0
VALEWOO1,1849,Valetta at Woodborough St EB - #1849,,42.97011,-81.314576,,,,,,0
VALEWOO2,1850,Valetta at Woodborough St WB - #1850,,42.970037,-81.314657,,,,,,0
VERUEDEN,1852,Verulam at Eden SB - #1852,,42.947258,-81.231175,,,,,,0
VICTCOMM,1854,Victoria Hospital at Commissioners NB - #1854,,42.959454,-81.223182,,,,,,0
VICTLOT9,1855,Victoria Hospital Cancer Centre SB - #1855,,42.959952,-81.228915,,,,,,0
VICTMUBU,1856,Victoria Hospital at Medical Unit Building - #1856,,42.961257,-81.221941,,,,,,0
VICTWES1,1857,Victoria Hospital at Western Counties EB - #1857,,42.959117,-81.223662,,,,,,0
VICTZONB,1859,Victoria Hospital & Baseline Rd Ent WB - #1859,,42.961443,-81.226937,,,,,,0
VISCCOM2,1872,Viscount AT Commissioners SB - #1872,,42.955816,-81.269168,,,,,,0
VISCCRAN,1873,Viscount at Cranbrook WB - #1873,,42.944409,-81.302864,,,,,,0
VISCFARN,1874,Viscount at Farnham Rd WB - #1874,,42.945708,-81.295842,,,,,,0
VISCFOXM,1875,Viscount at Foxmill Cr WB - #1875,,42.947583,-81.284005,,,,,,0
VISCGAL1,1876,Viscount at Galloway Cr FS NB - #1876,,42.95146,-81.268015,,,,,,0
VISCGAL2,1877,Viscount South of Galloway Cr SB - #1877,,42.950234,-81.268816,,,,,,0
VISCGAL3,1878,Viscount at Galloway Cr NS NB - #1878,,42.949847,-81.269034,,,,,,0
VISCGARD,1879,Viscount at Gardenvale WB - #1879,,42.947631,-81.280906,,,,,,0
VISCPIVA,1883,Viscount at Pine Valley Dr EB - #1883,,42.947553,-81.280877,,,,,,0
VISCSTEE,1884,Viscount at Steeplechase EB - #1884,,42.947528,-81.283968,,,,,,0
VISCTAV1,1885,Viscount at Tavistock Rd NB - #1885,,42.953716,-81.268278,,,,,,0
VISCTAV2,1886,Viscount at Tavistock Rd 1 SB - #1886,,42.95324,-81.268281,,,,,,0
VISCVIGR,1888,Viscount at Village Green WB - #1888,,42.944876,-81.299283,,,,,,0
VISCWON1,1889,Saunders Secondary School EB - #1889,,42.946666,-81.291751,,,,,,0
VISCWON2,1890,Viscount East of Wonderland WB - #1890,,42.947195,-81.288537,,,,,,0
VISCWON3,1891,Viscount East of Wonderland EB - #1891,,42.947173,-81.288021,,,,,,0
VISCWON5,1893,Viscount West of Wonderland EB - #1893,,42.946911,-81.289895,,,,,,0
WAVECAS1,1896,Wavell at Castle Dr EB - #1896,,42.999161,-81.170685,,,,,,0
WAVECAS2,1897,Wavell at Castle Dr WB - #1897,,42.999564,-81.169557,,,,,,0
WAVECLA1,1898,Wavell East of Clarke Rd EB - #1898,,42.998854,-81.171841,,,,,,0
WAVECLA2,1899,Wavell at Clarke WB - #1899,,42.998523,-81.173288,,,,,,0
WAVEDUN2,1903,2040 Wavell SB - #1903,,43.004325,-81.168777,,,,,,0
WAVEDUN4,1905,1990 Wavell SB - #1905,,43.002382,-81.167767,,,,,,0
WAVEDUN6,1906,Wavell at Dundas SB - #1906,,43.00596,-81.169634,,,,,,0
WAVEEDM1,1907,Wavell at Edmonton St EB - #1907,,42.99618,-81.18115,,,,,,0
WAVEEDM2,1908,Wavell at Edmonton St WB - #1908,,42.996438,-81.180556,,,,,,0
WAVEKIW1,1910,Wavell at Kiwanis Park Dr EB - #1910,,42.993332,-81.189834,,,,,,0
WAVEKIW2,1911,Wavell at Kiwanis Park Dr WB - #1911,,42.993712,-81.189514,,,,,,0
WAVEMER1,1912,Wavell East of Merlin Cr EB - #1912,,42.997589,-81.176181,,,,,,0
WAVEMER2,1913,Wavell at Merlin Cr WB - #1913,,42.99757,-81.176573,,,,,,0
WAVESASK,1915,Wavell at Saskatoon St WB - #1915,,42.994743,-81.186617,,,,,,0
WAVEVANC,1916,Wavell at Vancouver St. EB - #1916,,42.994928,-81.185574,,,,,,0
WAVEWIN2,1918,Wavell at Winnipeg Blvd WB - #1918,,42.99567,-81.183263,,,,,,0
WELLALEX,1922,Wellington & Alexandra St NB - #1922,,42.967398,-81.232396,,,,,,0
WELLBAS1,1923,Wellington at South of BaselineNB - #1923,,42.961193,-81.230777,,,,,,0
WELLBAS2,1924,Wellington at Baseline SB - #1924,,42.961977,-81.231306,,,,,,0
WELLBOND,1925,Wellington at Bond  NB - #1925,,42.968858,-81.234644,,,,,,0
WELLBRA1,1926,Wellington North of Bradley  NB - #1926,,42.935398,-81.223745,,,,,,0
WELLBRA2,1927,Wellington at Bradley  SB - #1927,,42.933922,-81.223468,,,,,,0
WELLCHES,1929,Wellington at Chester NB - #1929,,42.96436,-81.231661,,,,,,0
WELLCOLG,1930,Wellington at Colgrove Pl SB - #1930,,42.970156,-81.236499,,,,,,0
WELLCOM1,1931,Wellington at Commissioners NB - #1931,,42.958872,-81.230199,,,,,,0
WELLCOM4,1933,Wellington South of Commissioners SB - #1933,,42.957854,-81.230256,,,,,,0
WELLCRES,1934,Wellington at Creston Ave NB - #1934,,42.946286,-81.227132,,,,,,0
WELLDEAR,1935,Wellington at Dearness NB - #1935,,42.929847,-81.219712,,,,,,0
WELLDUFF,1936,Wellington at  Dufferin St NB - #1936,,42.987394,-81.246459,,,,,,0
WELLDUN1,1937,Wellington North of Dundas St NB - #1937,,42.98529,-81.245396,,,,,,0
WELLDUN2,1938,Wellington at Dundas SB - #1938,,42.984565,-81.245276,,,,,,0
WELLDUN3,1939,Wellington South of Dundas St NB - #1939,,42.984487,-81.244884,,,,,,0
WELLEXE1,1940,Wellington at Exeter NB - #1940,,42.926829,-81.217786,,,,,,0
WELLEXE2,1941,Wellington at Exeter SB - #1941,,42.927087,-81.2183,,,,,,0
WELLGRA1,1942,Wellington at Grand Ave NB - #1942,,42.972393,-81.238086,,,,,,0
WELLGRA2,1943,Wellington at Grand SB - #1943,,42.972119,-81.23806,,,,,,0
WELLGRE1,1944,Wellington at Grey St NB - #1944,,42.978105,-81.241688,,,,,,0
WELLGRE2,1945,Wellington at Grey SB - #1945,,42.977378,-81.241642,,,,,,0
WELLHOR1,1947,Wellington North of Horton NB - #1947,,42.98049,-81.242866,,,,,,0
WELLHOR2,1948,Wellington at Horton SB - #1948,,42.979808,-81.242895,,,,,,0
WELLHOR3,1949,Wellington South of Horton  NB - #1949,,42.979975,-81.242637,,,,,,0
WELLMCL1,1950,Wellington at McClary AVE NB - #1950,,42.970589,-81.236686,,,,,,0
WELLMON1,1952,Wellington at Montgomery Gate NB - #1952,,42.939082,-81.224643,,,,,,0
WELLMON2,1953,Wellington South of Montgomery Gate SB - #1953,,42.936868,-81.224381,,,,,,0
WELLMON4,1954,Wellington North of Montgomery G.t SB - #1954,,42.939705,-81.225036,,,,,,0
WELLNAD1,1956,705 Wellington SB - #1956,,42.94844,-81.228036,,,,,,0
WELLNADI,1957,Wellington at Creston SB - #1957,,42.946946,-81.227657,,,,,,0
WELLPERC,1958,Wellington at Percy SB - #1958,,42.963536,-81.231625,,,,,,0
WELLQUE2,1960,Wellington at Queens Ave SB - #1960,,42.985598,-81.245841,,,,,,0
WELLRAYW,1961,Wellington at Raywood NB - #1961,,42.968293,-81.233614,,,,,,0
WELLSDA1,1963,Wellington South of Southdale NB - #1963,,42.942563,-81.225428,,,,,,0
WELLSDA2,1964,Wellington at Southdale SB - #1964,,42.944319,-81.226408,,,,,,0
WELLSDA3,1965,Wellington North of Southdale Rd NB - #1965,,42.944743,-81.22623,,,,,,0
WELLSOU1,1968,Wellington at  South St NB - #1968,,42.975691,-81.240519,,,,,,0
WELLSOU2,1969,Wellington at South SB - #1969,,42.975173,-81.240561,,,,,,0
WELLTHJA,1970,Wellington at Thomas Janes SB - #1970,,42.965569,-81.232118,,,,,,0
WELLWAT1,1971,Wellington at Waterman NB - #1971,,42.956452,-81.229685,,,,,,0
WELLWAT2,1972,Wellington at Waterman SB - #1972,,42.954466,-81.229486,,,,,,0
WELLWELL,1974,Wellington at Wellington Cres SB - #1974,,42.968432,-81.234085,,,,,,0
WELLWIL1,1975,Wellington South of Wilkins St NB - #1975,,42.951107,-81.228451,,,,,,0
WELLWIL3,1977,Wellington North of Wilkins NB - #1977,,42.9546,-81.229335,,,,,,0
WELLWIL4,1978,Wellington South of Wilkins SB - #1978,,42.951023,-81.228688,,,,,,0
WELLYOR1,1979,Wellington at York NB - #1979,,42.982917,-81.244106,,,,,,0
WELLYOR2,1980,Wellington at York SB - #1980,,42.982963,-81.244483,,,,,,0
WESTAMB1,1983,Western at Ambleside Dr NB - #1983,,43.015448,-81.276724,,,,,,0
WESTAMB2,1984,Western at Ambleside Dr SB - #1984,,43.018039,-81.278181,,,,,,0
WESTBAS1,1985,Westminster at Baseline Rd NB - #1985,,42.964112,-81.224824,,,,,,0
WESTBAS2,1986,Westminster at Baseline Rd SB - #1986,,42.964256,-81.22495,,,,,,0
